STATEFP,COUNTYFP,STNAME,CTYNAME,NAMELSAD,population,Longitude,Latitude
31,39,Nebraska,Cuming County,Cuming County,8940,-96.78740041,41.91640283
53,69,Washington,Wahkiakum County,Wahkiakum County,4426,-123.4334699,46.29113382
35,11,New Mexico,De Baca County,De Baca County,1781,-104.4119579,34.34241351
31,109,Nebraska,Lancaster County,Lancaster County,317272,-96.68775551,40.78417355
31,129,Nebraska,Nuckolls County,Nuckolls County,4195,-98.04718499,40.17637963
72,85,NA,NA,Las Piedras Municipio,NA,-65.86931741,18.18752652
46,99,South Dakota,Minnehaha County,Minnehaha County,192876,-96.79143651,43.67417823
48,327,Texas,Menard County,Menard County,2139,-99.82063586,30.88978201
6,91,California,Sierra County,Sierra County,2987,-120.5159964,39.5804001
21,53,Kentucky,Clinton County,Clinton County,10206,-85.13601356,36.72748163
39,63,Ohio,Hancock County,Hancock County,75930,-83.66653581,41.00193524
48,189,Texas,Hale County,Hale County,33830,-101.8268813,34.07051251
1,27,Alabama,Clay County,Clay County,13275,-85.86054708,33.26908587
48,11,Texas,Armstrong County,Armstrong County,1892,-101.3574043,34.96492559
39,3,Ohio,Allen County,Allen County,102663,-84.10577931,40.77152105
13,189,Georgia,McDuffie County,McDuffie County,21531,-82.48137055,33.48285547
55,111,Wisconsin,Sauk County,Sauk County,64249,-89.94821667,43.42666339
5,137,Arkansas,Stone County,Stone County,12457,-92.15668358,35.85986618
41,63,Oregon,Wallowa County,Wallowa County,7081,-117.18102,45.5798653
42,7,Pennsylvania,Beaver County,Beaver County,164742,-80.34928728,40.68226295
28,61,Mississippi,Jasper County,Jasper County,16428,-89.11885982,32.01911274
29,83,Missouri,Henry County,Henry County,21792,-93.79275003,38.38516302
8,109,Colorado,Saguache County,Saguache County,6843,-106.2815556,38.08055276
37,37,North Carolina,Chatham County,Chatham County,73139,-79.25527586,35.70257213
49,33,Utah,Rich County,Rich County,2464,-111.2445098,41.63225343
40,1,Oklahoma,Adair County,Adair County,22082,-94.65867922,35.88392784
39,85,Ohio,Lake County,Lake County,230514,-81.25093924,41.91035213
51,775,Virginia,Salem city,Salem city,25643,-80.05547656,37.28640043
51,121,Virginia,Montgomery County,Montgomery County,98985,-80.38721543,37.17429064
47,65,Tennessee,Hamilton County,Hamilton County,364286,-85.1647899,35.18085525
35,35,New Mexico,Otero County,Otero County,66781,-105.7414426,32.61314468
35,3,New Mexico,Catron County,Catron County,3578,-108.4047624,33.91535189
1,91,Alabama,Marengo County,Marengo County,19066,-87.78951929,32.24761341
56,23,Wyoming,Lincoln County,Lincoln County,19434,-110.6559473,42.26380162
29,11,Missouri,Barton County,Barton County,11798,-94.34711078,37.50230062
48,57,Texas,Calhoun County,Calhoun County,21561,-96.61507367,28.43910927
51,735,Virginia,Poquoson city,Poquoson city,12190,-76.27056238,37.15026972
54,75,West Virginia,Pocahontas County,Pocahontas County,8414,-80.0077525,38.33179534
48,77,Texas,Clay County,Clay County,10456,-98.20850331,33.78553104
51,95,Virginia,James City County,James City County,76397,-76.77380009,37.3133053
31,101,Nebraska,Keith County,Keith County,8021,-101.6613512,41.19879316
31,137,Nebraska,Phelps County,Phelps County,8996,-99.41454289,40.51111306
22,19,Louisiana,Calcasieu Parish,Calcasieu Parish,203112,-93.35794529,30.22922398
22,111,Louisiana,Union Parish,Union Parish,22330,-92.37481822,32.83189616
40,135,Oklahoma,Sequoyah County,Sequoyah County,41179,-94.75524386,35.49535331
1,49,Alabama,DeKalb County,DeKalb County,71385,-85.80414264,34.45977296
36,101,New York,Steuben County,Steuben County,95796,-77.38380325,42.26780901
42,53,Pennsylvania,Forest County,Forest County,7279,-79.23601184,41.51307244
22,105,Louisiana,Tangipahoa Parish,Tangipahoa Parish,133777,-90.40568039,30.6266532
51,179,Virginia,Stafford County,Stafford County,149960,-77.45740039,38.42071902
26,109,Michigan,Menominee County,Menominee County,22983,-87.509684,45.52512136
18,73,Indiana,Jasper County,Jasper County,33370,-87.11612124,41.0229983
13,25,Georgia,Brantley County,Brantley County,18897,-81.98189527,31.19687606
13,171,Georgia,Lamar County,Lamar County,19000,-84.13946267,33.07653577
18,151,Indiana,Steuben County,Steuben County,34586,-85.00076485,41.64386788
48,361,Texas,Orange County,Orange County,83572,-93.89389811,30.1213083
39,47,Ohio,Fayette County,Fayette County,28666,-83.45609728,39.559883
25,15,Massachusetts,Hampshire County,Hampshire County,161355,-72.66379209,42.34016107
21,3,Kentucky,Allen County,Allen County,21122,-86.19041871,36.75131655
37,1,North Carolina,Alamance County,Alamance County,166436,-79.39942446,36.04371027
20,73,Kansas,Greenwood County,Greenwood County,6055,-96.23263567,37.87778756
25,25,Massachusetts,Suffolk County,Suffolk County,807252,-70.9855969,42.348686
16,51,Idaho,Jefferson County,Jefferson County,29439,-112.3113025,43.82013245
48,177,Texas,Gonzales County,Gonzales County,20826,-97.49252375,29.45673333
47,115,Tennessee,Marion County,Marion County,28575,-85.62203351,35.1293467
26,7,Michigan,Alpena County,Alpena County,28360,-83.16520109,45.03110751
21,231,Kentucky,Wayne County,Wayne County,20468,-84.8286312,36.80126525
47,185,Tennessee,White County,White County,27107,-85.45517718,35.92634843
48,147,Texas,Fannin County,Fannin County,35286,-96.1068277,33.59380979
20,43,Kansas,Doniphan County,Doniphan County,7682,-95.14679424,39.78808061
48,265,Texas,Kerr County,Kerr County,52405,-99.35015976,30.06148381
12,53,Florida,Hernando County,Hernando County,190865,-82.46848916,28.55617075
12,129,Florida,Wakulla County,Wakulla County,32461,-84.3756072,30.1477727
12,131,Florida,Walton County,Walton County,71375,-86.17151631,30.61846885
28,17,Mississippi,Chickasaw County,Chickasaw County,17171,-88.94786365,33.92079996
2,130,Alaska,Ketchikan Gateway Borough,Ketchikan Gateway Borough,13918,-131.0464283,55.46086874
26,35,Michigan,Clare County,Clare County,30757,-84.84785463,43.98788702
20,157,Kansas,Republic County,Republic County,4664,-97.65062278,39.82779631
12,127,Florida,Volusia County,Volusia County,547538,-81.14857483,29.06344966
40,17,Oklahoma,Canadian County,Canadian County,144447,-97.98238321,35.54244427
72,115,NA,NA,Quebradillas Municipio,NA,-66.92626637,18.46304827
78,30,NA,NA,St. Thomas Island,NA,-64.96708279,18.32860169
13,115,Georgia,Floyd County,Floyd County,97927,-85.21427865,34.26316269
32,1,Nevada,Churchill County,Churchill County,24440,-118.3357789,39.58087638
31,181,Nebraska,Webster County,Webster County,3533,-98.49994738,40.17643321
17,67,Illinois,Hancock County,Hancock County,17844,-91.16469753,40.40377645
46,67,South Dakota,Hutchinson County,Hutchinson County,7380,-97.75441626,43.33484675
41,13,Oregon,Crook County,Crook County,23867,-120.3565809,44.14218
50,11,Vermont,Franklin County,Franklin County,49421,-72.91202654,44.857514
26,103,Michigan,Marquette County,Marquette County,66516,-87.5735241,46.66287797
9,7,Connecticut,Middlesex County,Middlesex County,162682,-72.52311943,41.4353818
37,57,North Carolina,Davidson County,Davidson County,166614,-80.21274878,35.79335249
17,25,Illinois,Clay County,Clay County,13253,-88.49019239,38.75416237
29,103,Missouri,Knox County,Knox County,3947,-92.14807239,40.12825489
29,117,Missouri,Livingston County,Livingston County,15146,-93.54828172,39.78210515
42,117,Pennsylvania,Tioga County,Tioga County,40763,-77.25426418,41.77216145
31,43,Nebraska,Dakota County,Dakota County,20083,-96.56451302,42.39111182
26,89,Michigan,Leelanau County,Leelanau County,21764,-86.03849605,45.15177086
51,181,Virginia,Surry County,Surry County,6474,-76.88830957,37.11691216
48,391,Texas,Refugio County,Refugio County,7032,-97.15952148,28.32157533
39,17,Ohio,Butler County,Butler County,382378,-84.57564493,39.43861648
13,273,Georgia,Terrell County,Terrell County,8611,-84.4369222,31.77688099
13,63,Georgia,Clayton County,Clayton County,289615,-84.35765425,33.54190061
56,13,Wyoming,Fremont County,Fremont County,39531,-108.6304181,43.0405281
18,115,Indiana,Ohio County,Ohio County,5844,-84.96504312,38.95009459
13,73,Georgia,Columbia County,Columbia County,154291,-82.26406233,33.54412068
8,115,Colorado,Sedgwick County,Sedgwick County,2303,-102.3517912,40.87590497
30,65,Montana,Musselshell County,Musselshell County,4651,-108.3980881,46.49656119
42,43,Pennsylvania,Dauphin County,Dauphin County,277097,-76.77947436,40.41544033
46,101,South Dakota,Moody County,Moody County,6579,-96.67092221,44.02201182
54,79,West Virginia,Putnam County,Putnam County,56682,-81.90899293,38.50861678
34,37,New Jersey,Sussex County,Sussex County,140799,-74.69080069,41.13929693
20,39,Kansas,Decatur County,Decatur County,2871,-100.4598995,39.78475649
18,123,Indiana,Perry County,Perry County,19102,-86.6380318,38.07964914
28,145,Mississippi,Union County,Union County,28606,-89.00385691,34.49047423
31,15,Nebraska,Boyd County,Boyd County,1955,-98.76646211,42.89968489
27,95,Minnesota,Mille Lacs County,Mille Lacs County,26139,-93.63008346,45.93804073
38,99,North Dakota,Walsh County,Walsh County,10667,-97.72137178,48.36946171
39,115,Ohio,Morgan County,Morgan County,14604,-81.85266145,39.62037275
39,133,Ohio,Portage County,Portage County,162927,-81.19740359,41.1676829
56,41,Wyoming,Uinta County,Uinta County,20299,-110.5475617,41.28749192
32,13,Nevada,Humboldt County,Humboldt County,16786,-118.1119658,41.40684657
48,247,Texas,Jim Hogg County,Jim Hogg County,5248,-98.69730507,27.04339714
8,17,Colorado,Cheyenne County,Cheyenne County,1876,-102.6033958,38.82793972
41,5,Oregon,Clackamas County,Clackamas County,416075,-122.2208678,45.18804389
5,113,Arkansas,Polk County,Polk County,20049,-94.22806848,34.48584475
13,193,Georgia,Macon County,Macon County,13143,-84.04247958,32.35838924
18,7,Indiana,Benton County,Benton County,8653,-87.31090602,40.60625846
47,129,Tennessee,Morgan County,Morgan County,21579,-84.64920374,36.13502441
46,43,South Dakota,Douglas County,Douglas County,2935,-98.36609836,43.38692416
24,47,Maryland,Worcester County,Worcester County,51823,-75.29666934,38.2165007
17,185,Illinois,Wabash County,Wabash County,11549,-87.84425043,38.44606554
18,69,Indiana,Huntington County,Huntington County,36240,-85.48817228,40.82923996
21,209,Kentucky,Scott County,Scott County,56031,-84.5839267,38.29155537
19,53,Iowa,Decatur County,Decatur County,7890,-93.78628141,40.73768272
18,169,Indiana,Wabash County,Wabash County,31280,-85.79400567,40.84569301
18,3,Indiana,Allen County,Allen County,375351,-85.06656204,41.09087088
18,99,Indiana,Marshall County,Marshall County,46248,-86.26176129,41.32484896
31,171,Nebraska,Thomas County,Thomas County,720,-100.5558456,41.91350608
38,85,North Dakota,Sioux County,Sioux County,4358,-101.0403415,46.11265053
48,127,Texas,Dimmit County,Dimmit County,10308,-99.75672613,28.422536
27,45,Minnesota,Fillmore County,Fillmore County,21058,-92.09016727,43.67399717
45,23,South Carolina,Chester County,Chester County,32251,-81.15953127,34.69205729
27,73,Minnesota,Lac qui Parle County,Lac qui Parle County,6658,-96.17347866,44.99548693
49,5,Utah,Cache County,Cache County,127068,-111.7436251,41.72243006
55,93,Wisconsin,Pierce County,Pierce County,42555,-92.42248308,44.71963008
13,49,Georgia,Charlton County,Charlton County,12968,-82.13768814,30.7817272
13,233,Georgia,Polk County,Polk County,42470,-85.18815338,34.00178449
17,113,Illinois,McLean County,McLean County,172828,-88.847323,40.49089047
23,1,Maine,Androscoggin County,Androscoggin County,107679,-70.206445,44.16584843
16,55,Idaho,Kootenai County,Kootenai County,161505,-116.701762,47.67435663
32,3,Nevada,Clark County,Clark County,2231647,-115.0135617,36.2151981
20,147,Kansas,Phillips County,Phillips County,5317,-99.34702212,39.78458311
31,89,Nebraska,Holt County,Holt County,10178,-98.78384467,42.45571095
29,101,Missouri,Johnson County,Johnson County,53652,-93.80636749,38.74408549
55,63,Wisconsin,La Crosse County,La Crosse County,118230,-91.11519575,43.90655191
22,21,Louisiana,Caldwell Parish,Caldwell Parish,9960,-92.11660588,32.09227155
21,61,Kentucky,Edmonson County,Edmonson County,12274,-86.23862015,37.20884021
17,5,Illinois,Bond County,Bond County,16630,-89.43554946,38.88681658
17,9,Illinois,Brown County,Brown County,6556,-90.75034227,39.96181162
27,85,Minnesota,McLeod County,McLeod County,35873,-94.27242023,44.82354394
55,33,Wisconsin,Dunn County,Dunn County,45131,-91.89640358,44.94658398
8,27,Colorado,Custer County,Custer County,4954,-105.3674718,38.1086779
29,123,Missouri,Madison County,Madison County,12188,-90.34502616,37.4780955
48,353,Texas,Nolan County,Nolan County,14751,-100.4060525,32.30349026
42,127,Pennsylvania,Wayne County,Wayne County,51276,-75.30325772,41.64873075
36,91,New York,Saratoga County,Saratoga County,230163,-73.86390455,43.1073812
48,41,Texas,Brazos County,Brazos County,226758,-96.30238558,30.66079969
40,95,Oklahoma,Marshall County,Marshall County,16806,-96.76913163,34.02448999
24,1,Maryland,Allegany County,Allegany County,70975,-78.69753855,39.62147322
54,103,West Virginia,Wetzel County,Wetzel County,15270,-80.63909761,39.60526327
55,53,Wisconsin,Jackson County,Jackson County,20478,-90.80516771,44.31915048
41,7,Oregon,Clatsop County,Clatsop County,39764,-123.7169992,46.01752615
53,41,Washington,Lewis County,Lewis County,79604,-122.3926383,46.57776818
36,3,New York,Allegany County,Allegany County,46430,-78.0275606,42.25739135
19,31,Iowa,Cedar County,Cedar County,18627,-91.13241248,41.77232073
18,117,Indiana,Orange County,Orange County,19489,-86.49506929,38.54177888
13,89,Georgia,DeKalb County,DeKalb County,756558,-84.22641981,33.77155437
13,227,Georgia,Pickens County,Pickens County,31980,-84.46563905,34.46431978
30,15,Montana,Chouteau County,Chouteau County,5745,-110.4352238,47.88058388
31,17,Nebraska,Brown County,Brown County,2973,-99.92950645,42.4300206
47,13,Tennessee,Campbell County,Campbell County,39583,-84.14938458,36.40351281
37,69,North Carolina,Franklin County,Franklin County,67560,-78.28569659,36.08277335
24,510,Maryland,Baltimore city,Baltimore city,602495,-76.61064742,39.30098016
20,111,Kansas,Lyon County,Lyon County,33406,-96.15263976,38.45618714
19,27,Iowa,Carroll County,Carroll County,20154,-94.86055928,42.03623822
22,107,Louisiana,Tensas Parish,Tensas Parish,4462,-91.340073,32.00166078
47,123,Tennessee,Monroe County,Monroe County,46357,-84.25279785,35.44264345
20,75,Kansas,Hamilton County,Hamilton County,2607,-101.7912565,37.99915254
19,151,Iowa,Pocahontas County,Pocahontas County,6740,-94.67874662,42.73413511
16,45,Idaho,Gem County,Gem County,17634,-116.397519,44.06154654
5,63,Arkansas,Independence County,Independence County,37678,-91.56972441,35.74157956
5,85,Arkansas,Lonoke County,Lonoke County,73657,-91.88866766,34.75427031
18,111,Indiana,Newton County,Newton County,14011,-87.39753661,40.95584775
13,119,Georgia,Franklin County,Franklin County,23023,-83.22917534,34.37543589
12,51,Florida,Hendry County,Hendry County,41556,-81.16590125,26.55348985
13,265,Georgia,Taliaferro County,Taliaferro County,1608,-82.87876447,33.56609084
48,245,Texas,Jefferson County,Jefferson County,255001,-94.15343946,29.85372892
30,59,Montana,Meagher County,Meagher County,1866,-110.8856614,46.59822408
8,67,Colorado,La Plata County,La Plata County,56310,-107.8432707,37.28658196
48,27,Texas,Bell County,Bell County,355642,-97.4782024,31.03767171
28,69,Mississippi,Kemper County,Kemper County,10027,-88.64115942,32.75455793
5,19,Arkansas,Clark County,Clark County,22061,-93.17636749,34.05095586
41,35,Oregon,Klamath County,Klamath County,67653,-121.650121,42.68640894
36,75,New York,Oswego County,Oswego County,117898,-76.20868684,43.46388318
72,105,NA,NA,Naranjito Municipio,NA,-66.2525509,18.28841776
1,19,Alabama,Cherokee County,Cherokee County,26032,-85.60379372,34.17595597
48,19,Texas,Bandera County,Bandera County,22824,-99.24624412,29.747205
30,87,Montana,Rosebud County,Rosebud County,9063,-106.7307122,46.22965227
35,59,New Mexico,Union County,Union County,4118,-103.4709705,36.48166848
26,153,Michigan,Schoolcraft County,Schoolcraft County,8068,-86.17729414,46.04247983
36,111,New York,Ulster County,Ulster County,178599,-74.25856953,41.88814563
34,7,New Jersey,Camden County,Camden County,507078,-74.95975423,39.80353889
17,83,Illinois,Jersey County,Jersey County,21847,-90.3566834,39.08566177
51,85,Virginia,Hanover County,Hanover County,107239,-77.49115652,37.76013938
20,199,Kansas,Wallace County,Wallace County,1503,-101.763574,38.91666114
26,3,Michigan,Alger County,Alger County,9097,-86.57216017,46.94826921
5,49,Arkansas,Fulton County,Fulton County,12269,-91.81823772,36.38166958
48,215,Texas,Hidalgo County,Hidalgo County,865939,-98.18107051,26.39672057
37,155,North Carolina,Robeson County,Robeson County,131831,-79.10386604,34.64024231
26,123,Michigan,Newaygo County,Newaygo County,48892,-85.80091722,43.55416754
41,49,Oregon,Morrow County,Morrow County,11372,-119.5842743,45.41900473
27,153,Minnesota,Todd County,Todd County,24582,-94.89759936,46.07062376
5,83,Arkansas,Logan County,Logan County,21737,-93.71630623,35.21527246
37,109,North Carolina,Lincoln County,Lincoln County,83770,-81.22352667,35.48559804
5,91,Arkansas,Miller County,Miller County,43592,-93.8915606,33.31214659
12,95,Florida,Orange County,Orange County,1380645,-81.32347352,28.51441609
8,111,Colorado,San Juan County,San Juan County,762,-107.6761473,37.76404308
16,41,Idaho,Franklin County,Franklin County,13726,-111.8132011,42.18109166
13,45,Georgia,Carroll County,Carroll County,118121,-85.07976305,33.58279785
20,161,Kansas,Riley County,Riley County,73703,-96.73517702,39.29655297
48,413,Texas,Schleicher County,Schleicher County,2895,-100.538546,30.89745261
51,167,Virginia,Russell County,Russell County,26748,-82.09535632,36.93387051
37,27,North Carolina,Caldwell County,Caldwell County,82029,-81.54643664,35.95303794
16,65,Idaho,Madison County,Madison County,39304,-111.6591885,43.78414025
18,173,Indiana,Warrick County,Warrick County,62567,-87.27205374,38.09216624
21,1,Kentucky,Adair County,Adair County,19215,-85.28064851,37.1041561
21,77,Kentucky,Gallatin County,Gallatin County,8832,-84.85931239,38.75687466
21,97,Kentucky,Harrison County,Harrison County,18778,-84.33138534,38.44180708
23,23,Maine,Sagadahoc County,Sagadahoc County,35634,-69.83930896,43.91172689
30,97,Montana,Sweet Grass County,Sweet Grass County,3710,-109.9410139,45.81389376
48,181,Texas,Grayson County,Grayson County,133991,-96.67772539,33.62680856
42,59,Pennsylvania,Greene County,Greene County,36506,-80.22287386,39.85379981
2,188,Alaska,Northwest Arctic Borough,Northwest Arctic Borough,7671,-160.0069785,67.00817244
20,51,Kansas,Ellis County,Ellis County,28710,-99.31723162,38.91475125
1,65,Alabama,Hale County,Hale County,14726,-87.62911768,32.76266422
1,105,Alabama,Perry County,Perry County,9140,-87.29440079,32.63846566
1,33,Alabama,Colbert County,Colbert County,54762,-87.80498529,34.7004338
20,151,Kansas,Pratt County,Pratt County,9378,-98.73959571,37.64773534
21,17,Kentucky,Bourbon County,Bourbon County,20184,-84.21715078,38.2067345
47,149,Tennessee,Rutherford County,Rutherford County,324890,-86.41673754,35.84270577
13,75,Georgia,Cook County,Cook County,17162,-83.43046507,31.15399103
20,101,Kansas,Lane County,Lane County,1560,-100.4663983,38.48130317
40,59,Oklahoma,Harper County,Harper County,3797,-99.66736164,36.78872516
17,147,Illinois,Piatt County,Piatt County,16396,-88.59109121,40.01036662
48,107,Texas,Crosby County,Crosby County,5779,-101.2999585,33.61462503
72,53,NA,NA,Fajardo Municipio,NA,-65.60656081,18.36220925
1,63,Alabama,Greene County,Greene County,8233,-87.95223092,32.85313884
16,33,Idaho,Clark County,Clark County,852,-112.3512975,44.28390563
19,109,Iowa,Kossuth County,Kossuth County,14908,-94.20671993,43.20413003
72,151,NA,NA,Yabucoa Municipio,NA,-65.86330232,18.05596629
38,13,North Dakota,Burke County,Burke County,2100,-102.5182599,48.79099727
37,63,North Carolina,Durham County,Durham County,316739,-78.87659275,36.03602957
19,85,Iowa,Harrison County,Harrison County,14134,-95.81692089,41.68285275
31,103,Nebraska,Keya Paha County,Keya Paha County,810,-99.71234971,42.87882906
19,187,Iowa,Webster County,Webster County,36277,-94.18177456,42.42794955
17,151,Illinois,Pope County,Pope County,4212,-88.56158454,37.41276331
47,159,Tennessee,Smith County,Smith County,19942,-85.95671457,36.2505341
51,89,Virginia,Henry County,Henry County,50953,-79.8739525,36.68277268
51,510,Virginia,Alexandria city,Alexandria city,160530,-77.08620606,38.81845358
19,101,Iowa,Jefferson County,Jefferson County,18381,-91.94887289,41.03176207
30,49,Montana,Lewis and Clark County,Lewis and Clark County,68700,-112.390455,47.12244291
49,13,Utah,Duchesne County,Duchesne County,19964,-110.4251845,40.29824232
40,3,Oklahoma,Alfalfa County,Alfalfa County,5754,-98.32400151,36.73097721
48,119,Texas,Delta County,Delta County,5349,-95.67227082,33.38629274
47,169,Tennessee,Trousdale County,Trousdale County,11012,-86.15675276,36.39204286
21,193,Kentucky,Perry County,Perry County,26092,-83.2214816,37.24429332
46,39,South Dakota,Deuel County,Deuel County,4337,-96.66797412,44.76005791
41,29,Oregon,Jackson County,Jackson County,219564,-122.7285176,42.43215579
72,67,NA,NA,Hormigueros Municipio,NA,-67.1140223,18.13418073
48,507,Texas,Zavala County,Zavala County,11983,-99.76059567,28.86621142
31,7,Nebraska,Banner County,Banner County,730,-103.7104768,41.54597467
19,121,Iowa,Madison County,Madison County,16249,-94.01556195,41.33071422
12,11,Florida,Broward County,Broward County,1951260,-80.4558852,26.15185657
13,279,Georgia,Toombs County,Toombs County,26887,-82.33129291,32.12172033
26,151,Michigan,Sanilac County,Sanilac County,41182,-82.64575386,43.44331161
48,397,Texas,Rockwall County,Rockwall County,100657,-96.40778104,32.89775806
26,163,Michigan,Wayne County,Wayne County,1753893,-83.26113288,42.28474548
27,105,Minnesota,Nobles County,Nobles County,21924,-95.75338693,43.67424013
27,1,Minnesota,Aitkin County,Aitkin County,15902,-93.41542909,46.60825729
38,71,North Dakota,Ramsey County,Ramsey County,11481,-98.72013843,48.26893414
37,145,North Carolina,Person County,Person County,39507,-78.97180514,36.39009512
20,195,Kansas,Trego County,Trego County,2793,-99.8727363,38.91432452
28,151,Mississippi,Washington County,Washington County,45063,-90.94745464,33.2836981
48,133,Texas,Eastland County,Eastland County,18322,-98.83232225,32.32707307
28,55,Mississippi,Issaquena County,Issaquena County,1308,-90.98921241,32.74139056
48,123,Texas,DeWitt County,DeWitt County,20187,-97.35677845,29.08208129
48,5,Texas,Angelina County,Angelina County,87092,-94.61184854,31.25476458
45,81,South Carolina,Saluda County,Saluda County,20544,-81.72692491,34.00613706
29,125,Missouri,Maries County,Maries County,8769,-91.92488598,38.16163488
5,1,Arkansas,Arkansas County,Arkansas County,17769,-91.37490551,34.29080843
29,109,Missouri,Lawrence County,Lawrence County,38359,-93.83293656,37.10635121
51,540,Virginia,Charlottesville city,Charlottesville city,48117,-78.48549988,38.03749148
17,11,Illinois,Bureau County,Bureau County,32993,-89.52867749,41.40415243
39,145,Ohio,Scioto County,Scioto County,75502,-82.99283102,38.80396194
37,115,North Carolina,Madison County,Madison County,21763,-82.70575826,35.85803581
16,53,Idaho,Jerome County,Jerome County,24015,-114.2639414,42.68990475
39,163,Ohio,Vinton County,Vinton County,13139,-82.48535006,39.25098498
48,309,Texas,McLennan County,McLennan County,254607,-97.20178777,31.55237692
16,37,Idaho,Custer County,Custer County,4280,-114.2817225,44.24111572
19,89,Iowa,Howard County,Howard County,9187,-92.31719891,43.35676734
12,99,Florida,Palm Beach County,Palm Beach County,1485941,-80.43650847,26.64756816
13,181,Georgia,Lincoln County,Lincoln County,7915,-82.45121274,33.79365962
1,13,Alabama,Butler County,Butler County,19680,-86.68028922,31.75243394
47,165,Tennessee,Sumner County,Sumner County,187149,-86.46035537,36.46940884
51,97,Virginia,King and Queen County,King and Queen County,7042,-76.89527018,37.7186298
5,15,Arkansas,Carroll County,Carroll County,28223,-93.53824872,36.34102854
51,820,Virginia,Waynesboro city,Waynesboro city,22628,-78.90135473,38.06741696
2,220,Alaska,Sitka City and Borough,Sitka City and Borough,8647,-135.3049651,57.17977579
41,51,Oregon,Multnomah County,Multnomah County,811880,-122.4149286,45.54678826
47,61,Tennessee,Grundy County,Grundy County,13346,-85.7225824,35.3883667
27,57,Minnesota,Hubbard County,Hubbard County,21332,-94.9166206,47.10862981
38,81,North Dakota,Sargent County,Sargent County,3870,-97.63071796,46.10794229
36,89,New York,St. Lawrence County,St. Lawrence County,108047,-75.06895228,44.49640214
29,179,Missouri,Reynolds County,Reynolds County,6254,-90.96908283,37.36232656
6,67,California,Sacramento County,Sacramento County,1540975,-121.3442434,38.44931481
39,125,Ohio,Paulding County,Paulding County,18760,-84.58019456,41.11662083
18,179,Indiana,Wells County,Wells County,28206,-85.22121986,40.72918665
51,63,Virginia,Floyd County,Floyd County,15795,-80.36256833,36.93160071
6,83,California,Santa Barbara County,Santa Barbara County,446527,-120.0307862,34.53834409
54,5,West Virginia,Boone County,Boone County,21951,-81.71121263,38.02299659
28,9,Mississippi,Benton County,Benton County,8271,-89.18847549,34.81728646
21,55,Kentucky,Crittenden County,Crittenden County,8915,-88.09722266,37.35271527
19,147,Iowa,Palo Alto County,Palo Alto County,8929,-94.67813707,43.08206429
19,159,Iowa,Ringgold County,Ringgold County,4968,-94.24397191,40.7352023
37,151,North Carolina,Randolph County,Randolph County,143351,-79.80600691,35.7103417
24,15,Maryland,Cecil County,Cecil County,102826,-75.94810698,39.56242026
18,171,Indiana,Warren County,Warren County,8263,-87.35331448,40.34690333
31,77,Nebraska,Greeley County,Greeley County,2356,-98.52124452,41.5674403
31,95,Nebraska,Jefferson County,Jefferson County,7097,-97.14271566,40.17576086
31,151,Nebraska,Saline County,Saline County,14350,-97.1409087,40.52406109
21,119,Kentucky,Knott County,Knott County,15126,-82.95413135,37.35405242
19,45,Iowa,Clinton County,Clinton County,46518,-90.53197244,41.89803581
27,63,Minnesota,Jackson County,Jackson County,9911,-95.15411295,43.6741733
27,39,Minnesota,Dodge County,Dodge County,20822,-92.86205403,44.02258947
27,47,Minnesota,Freeborn County,Freeborn County,30444,-93.34881586,43.67384418
6,9,California,Calaveras County,Calaveras County,45602,-120.5541321,38.2046068
25,1,Massachusetts,Barnstable County,Barnstable County,213413,-70.23813749,41.77344927
51,119,Virginia,Middlesex County,Middlesex County,10769,-76.50591334,37.62270777
42,65,Pennsylvania,Jefferson County,Jefferson County,43641,-78.99942146,41.12814513
18,89,Indiana,Lake County,Lake County,484411,-87.3763856,41.47221213
47,3,Tennessee,Bedford County,Bedford County,49038,-86.4588857,35.51379788
47,27,Tennessee,Clay County,Clay County,7717,-85.54385919,36.55115711
17,29,Illinois,Coles County,Coles County,50885,-88.22179535,39.52028688
47,97,Tennessee,Lauderdale County,Lauderdale County,25825,-89.63144421,35.76101278
41,1,Oregon,Baker County,Baker County,16006,-117.6753635,44.70917428
36,97,New York,Schuyler County,Schuyler County,17912,-76.87518161,42.39380007
26,159,Michigan,Van Buren County,Van Buren County,75448,-86.30641489,42.28510558
17,131,Illinois,Mercer County,Mercer County,15601,-90.74140815,41.20533871
21,127,Kentucky,Lawrence County,Lawrence County,15571,-82.73475466,38.06787862
21,175,Kentucky,Morgan County,Morgan County,13345,-83.25889313,37.92228091
21,177,Kentucky,Muhlenberg County,Muhlenberg County,30774,-87.14204166,37.21579227
17,49,Illinois,Effingham County,Effingham County,34208,-88.58985733,39.05976977
47,105,Tennessee,Loudon County,Loudon County,53054,-84.31186931,35.7347784
46,25,South Dakota,Clark County,Clark County,3739,-97.7294963,44.85825389
15,3,Hawaii,Honolulu County,Honolulu County,980080,-164.7367403,23.7186404
12,41,Florida,Gilchrist County,Gilchrist County,18256,-82.80036654,29.72582272
18,157,Indiana,Tippecanoe County,Tippecanoe County,193048,-86.89409741,40.38861873
42,109,Pennsylvania,Snyder County,Snyder County,40540,-77.07016867,40.76984024
48,277,Texas,Lamar County,Lamar County,49728,-95.57120072,33.66726205
12,86,Florida,Miami-Dade County,Miami-Dade County,2761581,-80.4986668,25.60896815
31,57,Nebraska,Dundy County,Dundy County,1770,-101.6879614,40.17623524
48,289,Texas,Leon County,Leon County,17270,-95.99569065,31.29650681
8,97,Colorado,Pitkin County,Pitkin County,17950,-106.9165778,39.21710575
38,35,North Dakota,Grand Forks County,Grand Forks County,70770,-97.45693341,47.92191935
18,91,Indiana,LaPorte County,LaPorte County,110007,-86.74236622,41.54902156
18,57,Indiana,Hamilton County,Hamilton County,330086,-86.05201426,40.07248948
51,595,Virginia,Emporia city,Emporia city,5121,-77.53561073,36.69532995
40,81,Oklahoma,Lincoln County,Lincoln County,34920,-96.8809161,35.70299783
20,71,Kansas,Greeley County,Greeley County,1227,-101.8059684,38.48053745
13,145,Georgia,Harris County,Harris County,34475,-84.90898819,32.73600418
13,251,Georgia,Screven County,Screven County,13938,-81.61193455,32.75058663
72,127,NA,NA,San Juan Municipio,NA,-66.06832553,18.42225806
48,433,Texas,Stonewall County,Stonewall County,1362,-100.2533055,33.17912439
39,69,Ohio,Henry County,Henry County,27086,-84.06823042,41.33388517
33,9,New Hampshire,Grafton County,Grafton County,89786,-71.82071979,43.94066632
29,145,Missouri,Newton County,Newton County,58266,-94.3392465,36.90550884
18,129,Indiana,Posey County,Posey County,25540,-87.86847118,38.02189155
48,311,Texas,McMullen County,McMullen County,749,-98.56784112,28.35268796
17,35,Illinois,Cumberland County,Cumberland County,10808,-88.24023045,39.27331663
13,297,Georgia,Walton County,Walton County,93503,-83.73384663,33.78155714
27,121,Minnesota,Pope County,Pope County,11097,-95.44447858,45.58601506
51,157,Virginia,Rappahannock County,Rappahannock County,7252,-78.15923018,38.68477226
51,9,Virginia,Amherst County,Amherst County,31666,-79.14514645,37.60479277
6,111,California,Ventura County,Ventura County,850967,-119.1260272,34.35752852
17,33,Illinois,Crawford County,Crawford County,18807,-87.75955687,39.00268636
8,93,Colorado,Park County,Park County,18556,-105.7171747,39.11930286
6,37,California,Los Angeles County,Los Angeles County,10105518,-118.261017,34.19800147
4,27,Arizona,Yuma County,Yuma County,212128,-113.9055638,32.76940434
13,129,Georgia,Gordon County,Gordon County,57685,-84.87575273,34.50335918
19,25,Iowa,Calhoun County,Calhoun County,9699,-94.64041361,42.38518485
12,55,Florida,Highlands County,Highlands County,105424,-81.34097094,27.34340434
51,580,Virginia,Covington city,Covington city,5460,-79.98675589,37.77861619
50,17,Vermont,Orange County,Orange County,28999,-72.3768216,44.00566177
20,113,Kansas,McPherson County,McPherson County,28537,-97.64807987,38.39166665
4,21,Arizona,Pinal County,Pinal County,447138,-111.3447269,32.9043583
39,51,Ohio,Fulton County,Fulton County,42276,-84.13007381,41.60179815
8,3,Colorado,Alamosa County,Alamosa County,16683,-105.7882882,37.57289314
12,17,Florida,Citrus County,Citrus County,147929,-82.52010673,28.8475697
72,49,NA,NA,Culebra Municipio,NA,-65.30080099,18.32336698
72,51,NA,NA,Dorado Municipio,NA,-66.26203068,18.47202096
47,41,Tennessee,DeKalb County,DeKalb County,20138,-85.83275165,35.97986066
42,31,Pennsylvania,Clarion County,Clarion County,38779,-79.42096351,41.19238951
46,97,South Dakota,Miner County,Miner County,2213,-97.61024521,44.02195117
46,73,South Dakota,Jerauld County,Jerauld County,2043,-98.62970524,44.0663371
18,31,Indiana,Decatur County,Decatur County,26794,-85.50114305,39.30699993
18,37,Indiana,Dubois County,Dubois County,42565,-86.87980212,38.36427643
51,57,Virginia,Essex County,Essex County,10919,-76.94090081,37.93906816
45,89,South Carolina,Williamsburg County,Williamsburg County,30606,-79.72771252,33.61992517
36,31,New York,Essex County,Essex County,37300,-73.77270944,44.11721752
19,195,Iowa,Worth County,Worth County,7453,-93.26084755,43.37739845
40,63,Oklahoma,Hughes County,Hughes County,13335,-96.25024293,35.04833944
51,27,Virginia,Buchanan County,Buchanan County,21221,-82.03601459,37.26661557
51,5,Virginia,Alleghany County,Alleghany County,14910,-80.00617519,37.78777755
28,87,Mississippi,Lowndes County,Lowndes County,58930,-88.44331349,33.47290927
18,143,Indiana,Scott County,Scott County,23878,-85.7474681,38.68506995
8,99,Colorado,Prowers County,Prowers County,12164,-102.393349,37.95518319
48,435,Texas,Sutton County,Sutton County,3758,-100.5381875,30.49829303
72,121,NA,NA,Sabana Grande Municipio,NA,-66.94331182,18.08363344
40,101,Oklahoma,Muskogee County,Muskogee County,68362,-95.37952718,35.6161305
29,43,Missouri,Christian County,Christian County,86983,-93.18885385,36.9695717
72,39,NA,NA,Ciales Municipio,NA,-66.51644221,18.28901801
28,73,Mississippi,Lamar County,Lamar County,62447,-89.50868781,31.20586856
18,137,Indiana,Ripley County,Ripley County,28523,-85.26238637,39.10345467
38,57,North Dakota,Mercer County,Mercer County,8267,-101.8315302,47.30921845
13,147,Georgia,Hart County,Hart County,26099,-82.9642476,34.35089833
22,49,Louisiana,Jackson Parish,Jackson Parish,15902,-92.55774011,32.30203492
51,133,Virginia,Northumberland County,Northumberland County,12147,-76.37952123,37.85466327
48,157,Texas,Fort Bend County,Fort Bend County,787858,-95.77088864,29.52749271
55,47,Wisconsin,Green Lake County,Green Lake County,18918,-89.04485971,43.80037889
30,73,Montana,Pondera County,Pondera County,5972,-112.2266879,48.22793281
55,127,Wisconsin,Walworth County,Walworth County,103718,-88.54190461,42.66848696
32,21,Nevada,Mineral County,Mineral County,4514,-118.4352143,38.53880859
17,57,Illinois,Fulton County,Fulton County,34844,-90.20747269,40.47276639
36,103,New York,Suffolk County,Suffolk County,1481093,-72.68524119,40.94046108
18,161,Indiana,Union County,Union County,7037,-84.92514203,39.62554584
29,119,Missouri,McDonald County,McDonald County,23078,-94.34835866,36.628674
31,157,Nebraska,Scotts Bluff County,Scotts Bluff County,35989,-103.7079466,41.85060754
35,47,New Mexico,San Miguel County,San Miguel County,27591,-104.8160019,35.48062692
1,81,Alabama,Lee County,Lee County,163941,-85.35556271,32.60113649
48,367,Texas,Parker County,Parker County,138371,-97.80509667,32.77764582
38,21,North Dakota,Dickey County,Dickey County,4903,-98.50467077,46.1101235
38,3,North Dakota,Barnes County,Barnes County,10542,-98.07157872,46.93610509
27,143,Minnesota,Sibley County,Sibley County,15028,-94.23214208,44.57947837
13,293,Georgia,Upson County,Upson County,26215,-84.29934351,32.88127004
6,97,California,Sonoma County,Sonoma County,499942,-122.9225447,38.52529257
26,33,Michigan,Chippewa County,Chippewa County,37517,-84.52936792,46.32817843
16,19,Idaho,Bonneville County,Bonneville County,116854,-111.6147527,43.38774238
13,13,Georgia,Barrow County,Barrow County,80809,-83.71275498,33.99319621
13,183,Georgia,Long County,Long County,18998,-81.74576698,31.75258483
48,271,Texas,Kinney County,Kinney County,3767,-100.4179466,29.35020758
40,115,Oklahoma,Ottawa County,Ottawa County,31175,-94.81043685,36.83551092
42,33,Pennsylvania,Clearfield County,Clearfield County,79388,-78.47412511,41.00019185
26,37,Michigan,Clinton County,Clinton County,79332,-84.60151655,42.94365237
72,133,NA,NA,Santa Isabel Municipio,NA,-66.38669382,17.95300332
17,135,Illinois,Montgomery County,Montgomery County,28601,-89.47887033,39.23104006
28,3,Mississippi,Alcorn County,Alcorn County,36925,-88.58026457,34.88077146
28,71,Mississippi,Lafayette County,Lafayette County,54793,-89.48491927,34.35675781
22,43,Louisiana,Grant Parish,Grant Parish,22482,-92.55952045,31.59970368
29,5,Missouri,Atchison County,Atchison County,5171,-95.42809347,40.43084757
17,115,Illinois,Macon County,Macon County,104712,-88.96159676,39.85999519
26,149,Michigan,St. Joseph County,St. Joseph County,61043,-85.5277447,41.91441427
17,55,Illinois,Franklin County,Franklin County,38701,-88.92415393,37.99228499
30,33,Montana,Garfield County,Garfield County,1268,-106.9928891,47.27763872
31,1,Nebraska,Adams County,Adams County,31511,-98.50120896,40.52446871
27,109,Minnesota,Olmsted County,Olmsted County,156277,-92.40177093,44.00375251
34,39,New Jersey,Union County,Union County,558067,-74.30814142,40.65989941
72,139,NA,NA,Trujillo Alto Municipio,NA,-65.99912398,18.33631137
1,97,Alabama,Mobile County,Mobile County,413757,-88.19752955,30.68514692
46,87,South Dakota,McCook County,McCook County,5546,-97.36844318,43.67431085
1,57,Alabama,Fayette County,Fayette County,16433,-87.73886197,33.72120615
1,17,Alabama,Chambers County,Chambers County,33615,-85.39204295,32.91437224
37,131,North Carolina,Northampton County,Northampton County,19676,-77.39682121,36.41773124
8,81,Colorado,Moffat County,Moffat County,13188,-108.2072906,40.61842222
21,87,Kentucky,Green County,Green County,11049,-85.55310529,37.26410886
18,47,Indiana,Franklin County,Franklin County,22736,-85.06028488,39.41486453
37,13,North Carolina,Beaufort County,Beaufort County,47079,-76.84531443,35.48698383
72,73,NA,NA,Jayuya Municipio,NA,-66.58844533,18.21064591
38,15,North Dakota,Burleigh County,Burleigh County,95273,-100.468733,46.97738951
37,159,North Carolina,Rowan County,Rowan County,141262,-80.52477161,35.63947358
26,71,Michigan,Iron County,Iron County,11117,-88.53055287,46.20866709
27,67,Minnesota,Kandiyohi County,Kandiyohi County,42855,-95.00474166,45.15238164
21,237,Kentucky,Wolfe County,Wolfe County,7177,-83.49317515,37.7393196
48,149,Texas,Fayette County,Fayette County,25349,-96.91976172,29.87678679
46,81,South Dakota,Lawrence County,Lawrence County,25741,-103.7922245,44.35862718
23,29,Maine,Washington County,Washington County,31490,-67.60905845,44.96945885
48,45,Texas,Briscoe County,Briscoe County,1516,-101.2085933,34.5302641
26,131,Michigan,Ontonagon County,Ontonagon County,5795,-89.43473154,47.02218458
28,15,Mississippi,Carroll County,Carroll County,9911,-89.9201977,33.44852585
41,3,Oregon,Benton County,Benton County,92101,-123.4292491,44.49179904
27,133,Minnesota,Rock County,Rock County,9414,-96.25320765,43.6746304
42,63,Pennsylvania,Indiana County,Indiana County,84501,-79.08754997,40.65204906
22,61,Louisiana,Lincoln Parish,Lincoln Parish,47196,-92.66481528,32.60163737
42,99,Pennsylvania,Perry County,Perry County,46139,-77.2622961,40.39840945
46,137,South Dakota,Ziebach County,Ziebach County,2742,-101.6658595,44.98041182
48,203,Texas,Harrison County,Harrison County,66726,-94.37148656,32.5481332
26,13,Michigan,Baraga County,Baraga County,8320,-88.35218035,46.69970945
40,131,Oklahoma,Rogers County,Rogers County,91984,-95.60436154,36.3715704
29,19,Missouri,Boone County,Boone County,180005,-92.30968023,38.99061519
72,97,NA,NA,Mayagüez Municipio,NA,-67.60506376,18.1831013
40,15,Oklahoma,Caddo County,Caddo County,28977,-98.37514675,35.17437903
8,59,Colorado,Jefferson County,Jefferson County,580233,-105.2504678,39.58642862
54,11,West Virginia,Cabell County,Cabell County,93224,-82.24171668,38.42029688
48,383,Texas,Reagan County,Reagan County,3741,-101.5230084,31.36619213
5,141,Arkansas,Van Buren County,Van Buren County,16603,-92.51570205,35.58065064
8,117,Colorado,Summit County,Summit County,31007,-106.1163791,39.63417081
20,35,Kansas,Cowley County,Cowley County,35218,-96.83748918,37.23775266
5,71,Arkansas,Johnson County,Johnson County,26742,-93.45991002,35.57005489
36,41,New York,Hamilton County,Hamilton County,4434,-74.49735513,43.66112163
51,45,Virginia,Craig County,Craig County,5064,-80.21139542,37.48170639
48,83,Texas,Coleman County,Coleman County,8397,-99.45363765,31.77320687
2,290,Alaska,Yukon-Koyukuk Census Area,Yukon-Koyukuk Census Area,5327,-151.389616,65.50865215
4,17,Arizona,Navajo County,Navajo County,110445,-110.3214029,35.39953935
28,85,Mississippi,Lincoln County,Lincoln County,34205,-90.4539982,31.53239157
48,357,Texas,Ochiltree County,Ochiltree County,9947,-100.815654,36.27841371
48,103,Texas,Crane County,Crane County,4794,-102.5155685,31.42849744
56,3,Wyoming,Big Horn County,Big Horn County,11881,-107.9951988,44.52671554
47,81,Tennessee,Hickman County,Hickman County,25063,-87.47330823,35.80325068
28,143,Mississippi,Tunica County,Tunica County,9944,-90.37549871,34.65194955
29,81,Missouri,Harrison County,Harrison County,8414,-93.99206373,40.35466858
72,29,NA,NA,Canóvanas Municipio,NA,-65.88788761,18.32899322
18,5,Indiana,Bartholomew County,Bartholomew County,82753,-85.89760297,39.20597057
13,223,Georgia,Paulding County,Paulding County,164044,-84.86728851,33.92054556
39,15,Ohio,Brown County,Brown County,43602,-83.86742792,38.93404766
47,141,Tennessee,Putnam County,Putnam County,78843,-85.49519072,36.14083281
38,101,North Dakota,Ward County,Ward County,67744,-101.5418281,48.22174628
25,27,Massachusetts,Worcester County,Worcester County,830839,-71.90772777,42.35139545
39,91,Ohio,Logan County,Logan County,45358,-83.76587176,40.38845298
6,31,California,Kings County,Kings County,151366,-119.8155027,36.07536045
6,73,California,San Diego County,San Diego County,3343364,-116.7702074,33.0282032
72,123,NA,NA,Salinas Municipio,NA,-66.26197566,17.97295401
13,79,Georgia,Crawford County,Crawford County,12318,-83.98634232,32.71450166
72,103,NA,NA,Naguabo Municipio,NA,-65.73609487,18.21103044
29,37,Missouri,Cass County,Cass County,104954,-94.35481631,38.64697845
36,27,New York,Dutchess County,Dutchess County,293718,-73.74286306,41.76514745
48,477,Texas,Washington County,Washington County,35108,-96.40344376,30.21453043
8,101,Colorado,Pueblo County,Pueblo County,167529,-104.5128456,38.17342024
29,67,Missouri,Douglas County,Douglas County,13373,-92.49880571,36.93259759
38,9,North Dakota,Bottineau County,Bottineau County,6411,-100.8333307,48.79216079
37,51,North Carolina,Cumberland County,Cumberland County,332330,-78.82756077,35.04861194
56,17,Wyoming,Hot Springs County,Hot Springs County,4555,-108.4420972,43.718929
26,1,Michigan,Alcona County,Alcona County,10362,-83.12900752,44.68362338
6,61,California,Placer County,Placer County,393149,-120.7176516,39.0634272
5,129,Arkansas,Searcy County,Searcy County,7958,-92.69948825,35.91090294
48,305,Texas,Lynn County,Lynn County,5877,-101.8161238,33.17682444
36,77,New York,Otsego County,Otsego County,59749,-75.03260595,42.63376357
37,153,North Carolina,Richmond County,Richmond County,44887,-79.74777786,35.0060478
37,93,North Carolina,Hoke County,Hoke County,54764,-79.2372911,35.01752851
31,131,Nebraska,Otoe County,Otoe County,15985,-96.13477542,40.648501
42,23,Pennsylvania,Cameron County,Cameron County,4492,-78.2037774,41.43680441
45,35,South Carolina,Dorchester County,Dorchester County,160647,-80.40556683,33.07950881
27,161,Minnesota,Waseca County,Waseca County,18691,-93.58728322,44.02212365
46,15,South Dakota,Brule County,Brule County,5229,-99.08093541,43.71805887
47,177,Tennessee,Warren County,Warren County,40878,-85.77849804,35.67868271
17,23,Illinois,Clark County,Clark County,15596,-87.78772275,39.33356695
21,201,Kentucky,Robertson County,Robertson County,2135,-84.0520223,38.51881399
47,95,Tennessee,Lake County,Lake County,7411,-89.4934668,36.33538436
45,15,South Carolina,Berkeley County,Berkeley County,221091,-79.95098699,33.19767985
5,51,Arkansas,Garland County,Garland County,99154,-93.15042488,34.57668597
20,139,Kansas,Osage County,Osage County,15941,-95.72694514,38.65232892
39,155,Ohio,Trumbull County,Trumbull County,198627,-80.76116025,41.31717409
48,333,Texas,Mills County,Mills County,4921,-98.59546009,31.49519397
48,359,Texas,Oldham County,Oldham County,2131,-102.6028706,35.40503462
42,19,Pennsylvania,Butler County,Butler County,187888,-79.91299256,40.91171994
16,49,Idaho,Idaho County,Idaho County,16513,-115.4674871,45.84419767
20,115,Kansas,Marion County,Marion County,11950,-97.09689098,38.35887208
51,29,Virginia,Buckingham County,Buckingham County,16999,-78.52870375,37.57220734
37,25,North Carolina,Cabarrus County,Cabarrus County,211342,-80.5518444,35.38679728
29,225,Missouri,Webster County,Webster County,39109,-92.87587703,37.28090534
49,11,Utah,Davis County,Davis County,351713,-112.1113713,40.99006872
27,33,Minnesota,Cottonwood County,Cottonwood County,11277,-95.18115326,44.00710671
12,93,Florida,Okeechobee County,Okeechobee County,41537,-80.88857595,27.38629197
13,291,Georgia,Union County,Union County,24001,-83.99075972,34.83401861
19,13,Iowa,Black Hawk County,Black Hawk County,132408,-92.30881971,42.47009574
48,403,Texas,Sabine County,Sabine County,10589,-93.85180241,31.34319986
39,131,Ohio,Pike County,Pike County,28067,-83.06685416,39.07737144
1,125,Alabama,Tuscaloosa County,Tuscaloosa County,208911,-87.52502995,33.28954984
1,131,Alabama,Wilcox County,Wilcox County,10627,-87.30820179,31.98924019
28,97,Mississippi,Montgomery County,Montgomery County,10023,-89.6163957,33.49410242
31,99,Nebraska,Kearney County,Kearney County,6544,-98.94802164,40.50670725
31,87,Nebraska,Hitchcock County,Hitchcock County,2806,-101.0422724,40.17634692
10,3,Delaware,New Castle County,New Castle County,559335,-75.63897813,39.5783299
16,81,Idaho,Teton County,Teton County,11640,-111.2076145,43.75942988
17,161,Illinois,Rock Island County,Rock Island County,143477,-90.56742589,41.46732977
51,73,Virginia,Gloucester County,Gloucester County,37349,-76.52296674,37.40120863
5,133,Arkansas,Sevier County,Sevier County,17139,-94.24121744,33.99719938
18,17,Indiana,Cass County,Cass County,37955,-86.34594656,40.7614915
16,77,Idaho,Power County,Power County,7768,-112.840656,42.69365612
18,15,Indiana,Carroll County,Carroll County,20127,-86.56348413,40.58285856
42,101,Pennsylvania,Philadelphia County,Philadelphia County,1584138,-75.13396121,40.00763765
56,43,Wyoming,Washakie County,Washakie County,7885,-107.682861,43.90499735
37,29,North Carolina,Camden County,Camden County,10710,-76.1609504,36.34112162
36,109,New York,Tompkins County,Tompkins County,102793,-76.47365859,42.45201625
5,69,Arkansas,Jefferson County,Jefferson County,68114,-91.9315146,34.26878509
5,79,Arkansas,Lincoln County,Lincoln County,13383,-91.73332487,33.95746756
55,123,Wisconsin,Vernon County,Vernon County,30785,-90.83438239,43.59386193
29,93,Missouri,Iron County,Iron County,10177,-90.77349032,37.55514881
48,223,Texas,Hopkins County,Hopkins County,36810,-95.56395016,33.1495559
36,1,New York,Albany County,Albany County,307117,-73.97355857,42.60017643
48,225,Texas,Houston County,Houston County,23169,-95.42267715,31.31773256
39,111,Ohio,Monroe County,Monroe County,13790,-81.08291771,39.72734708
20,165,Kansas,Rush County,Rush County,3093,-99.30924095,38.52316131
18,107,Indiana,Montgomery County,Montgomery County,38346,-86.8932998,40.04037852
20,187,Kansas,Stanton County,Stanton County,1987,-101.7841833,37.56306128
21,129,Kentucky,Lee County,Lee County,7033,-83.71627634,37.59479849
27,71,Minnesota,Koochiching County,Koochiching County,12440,-93.78336628,48.24526837
48,29,Texas,Bexar County,Bexar County,1986049,-98.52002561,29.44895809
8,13,Colorado,Boulder County,Boulder County,326078,-105.3577057,40.09245977
47,89,Tennessee,Jefferson County,Jefferson County,54012,-83.44631012,36.05098774
40,97,Oklahoma,Mayes County,Mayes County,41107,-95.23084587,36.30187814
27,165,Minnesota,Watonwan County,Watonwan County,10980,-94.61406061,43.97842789
16,13,Idaho,Blaine County,Blaine County,22601,-113.9801476,43.41194057
22,53,Louisiana,Jefferson Davis Parish,Jefferson Davis Parish,31582,-92.81412092,30.26772188
46,119,South Dakota,Sully County,Sully County,1392,-100.1322048,44.71557732
8,31,Colorado,Denver County,Denver County,716492,-104.8758189,39.7621563
40,29,Oklahoma,Coal County,Coal County,5520,-96.29785665,34.58819268
30,11,Montana,Carter County,Carter County,1238,-104.5361587,45.51675687
48,461,Texas,Upton County,Upton County,3671,-102.0430349,31.36873023
18,51,Indiana,Gibson County,Gibson County,33452,-87.58459472,38.3118253
31,105,Nebraska,Kimball County,Kimball County,3618,-103.7149499,41.19765666
17,93,Illinois,Kendall County,Kendall County,127915,-88.42884735,41.59053859
11,1,District of Columbia,District of Columbia,District of Columbia,702455,-77.01630267,38.90477372
8,85,Colorado,Montrose County,Montrose County,42214,-108.2694511,38.40215603
27,171,Minnesota,Wright County,Wright County,136349,-93.96305259,45.17393138
55,59,Wisconsin,Kenosha County,Kenosha County,169290,-87.65311835,42.57850408
8,37,Colorado,Eagle County,Eagle County,54993,-106.6952993,39.62782562
6,75,California,San Francisco County,San Francisco County,883305,-122.6939756,37.75971502
8,113,Colorado,San Miguel County,San Miguel County,8191,-108.4059221,38.0037404
2,20,Alaska,Anchorage Municipality,Anchorage Municipality,291538,-149.1885686,61.1482627
12,109,Florida,St. Johns County,St. Johns County,254261,-81.40988653,29.91218241
28,19,Mississippi,Choctaw County,Choctaw County,8278,-89.2483812,33.34730707
29,79,Missouri,Grundy County,Grundy County,9914,-93.56533547,40.11392937
26,85,Michigan,Lake County,Lake County,11881,-85.80164524,43.99006693
26,139,Michigan,Ottawa County,Ottawa County,290494,-86.42188217,42.9485349
17,31,Illinois,Cook County,Cook County,5180493,-87.64616456,41.89542391
17,59,Illinois,Gallatin County,Gallatin County,5058,-88.23050337,37.76274647
45,47,South Carolina,Greenwood County,Greenwood County,70741,-82.12592871,34.15382834
20,59,Kansas,Franklin County,Franklin County,25631,-95.28594824,38.56451745
27,27,Minnesota,Clay County,Clay County,63955,-96.49064747,46.89234255
47,75,Tennessee,Haywood County,Haywood County,17335,-89.2838358,35.58322184
49,3,Utah,Box Elder County,Box Elder County,54950,-113.0820246,41.52101757
28,139,Mississippi,Tippah County,Tippah County,21995,-88.90889803,34.76840024
54,51,West Virginia,Marshall County,Marshall County,30785,-80.66338653,39.86061286
54,35,West Virginia,Jackson County,Jackson County,28706,-81.67479432,38.83446832
16,39,Idaho,Elmore County,Elmore County,27259,-115.4692624,43.3538854
24,5,Maryland,Baltimore County,Baltimore County,828431,-76.61631892,39.44307427
38,5,North Dakota,Benson County,Benson County,6962,-99.36602813,48.06938612
29,163,Missouri,Pike County,Pike County,18504,-91.17136327,39.3438352
39,87,Ohio,Lawrence County,Lawrence County,59866,-82.53675241,38.59846925
29,201,Missouri,Scott County,Scott County,38458,-89.56851469,37.05304602
39,1,Ohio,Adams County,Adams County,27724,-83.47215178,38.84551493
48,143,Texas,Erath County,Erath County,42446,-98.21796671,32.23625867
13,137,Georgia,Habersham County,Habersham County,45388,-83.53111587,34.63102133
13,319,Georgia,Wilkinson County,Wilkinson County,9036,-83.17124907,32.80240552
54,61,West Virginia,Monongalia County,Monongalia County,106420,-80.04654416,39.63028389
39,33,Ohio,Crawford County,Crawford County,41550,-82.9197777,40.85077257
12,27,Florida,DeSoto County,DeSoto County,37489,-81.80930098,27.18632023
9,11,Connecticut,New London County,New London County,266784,-72.10651291,41.46678625
39,59,Ohio,Guernsey County,Guernsey County,39022,-81.49425622,40.05205365
26,15,Michigan,Barry County,Barry County,61157,-85.30896808,42.59502843
29,209,Missouri,Stone County,Stone County,31749,-93.45600118,36.74694382
51,760,Virginia,Richmond city,Richmond city,228783,-77.47558699,37.52944159
37,169,North Carolina,Stokes County,Stokes County,45467,-80.23951602,36.40190409
19,39,Iowa,Clarke County,Clarke County,9423,-93.78515784,41.0290323
19,65,Iowa,Fayette County,Fayette County,19660,-91.84432433,42.86259616
6,41,California,Marin County,Marin County,259666,-122.7488586,38.05518334
48,381,Texas,Randall County,Randall County,136271,-101.8969459,34.96585398
48,401,Texas,Rusk County,Rusk County,54450,-94.76187914,32.1077245
19,181,Iowa,Warren County,Warren County,51056,-93.56135937,41.33437346
39,161,Ohio,Van Wert County,Van Wert County,28281,-84.58609913,40.85539824
12,43,Florida,Glades County,Glades County,13724,-81.18897956,26.95647572
13,199,Georgia,Meriwether County,Meriwether County,21068,-84.68831158,33.04065594
8,23,Colorado,Costilla County,Costilla County,3828,-105.4282497,37.27795227
48,99,Texas,Coryell County,Coryell County,74808,-97.79920429,31.39091144
19,1,Iowa,Adair County,Adair County,7063,-94.47094134,41.33074643
13,53,Georgia,Chattahoochee County,Chattahoochee County,10684,-84.78704968,32.34697177
6,43,California,Mariposa County,Mariposa County,17471,-119.905517,37.58152231
29,89,Missouri,Howard County,Howard County,10137,-92.69626548,39.14249749
41,47,Oregon,Marion County,Marion County,346868,-122.5848981,44.90332328
55,79,Wisconsin,Milwaukee County,Milwaukee County,948201,-87.58055685,43.01545764
27,139,Minnesota,Scott County,Scott County,147381,-93.53589826,44.64847372
39,129,Ohio,Pickaway County,Pickaway County,58086,-83.02439163,39.64194109
51,145,Virginia,Powhatan County,Powhatan County,29189,-77.91519426,37.55018715
8,14,Colorado,Broomfield County,Broomfield County,69267,-105.0526649,39.9541357
47,99,Tennessee,Lawrence County,Lawrence County,43734,-87.39558526,35.21727423
26,9,Michigan,Antrim County,Antrim County,23365,-85.17582216,45.00738381
45,69,South Carolina,Marlboro County,Marlboro County,26398,-79.67872262,34.60206033
16,9,Idaho,Benewah County,Benewah County,9226,-116.6586542,47.21753785
17,103,Illinois,Lee County,Lee County,34223,-89.30038672,41.74619333
31,127,Nebraska,Nemaha County,Nemaha County,6958,-95.84981606,40.38765487
37,31,North Carolina,Carteret County,Carteret County,69524,-76.53574307,34.86125981
20,149,Kansas,Pottawatomie County,Pottawatomie County,24277,-96.342365,39.37900278
26,75,Michigan,Jackson County,Jackson County,158823,-84.4234373,42.2484874
48,91,Texas,Comal County,Comal County,148373,-98.27824566,29.80818143
25,19,Massachusetts,Nantucket County,Nantucket County,11327,-70.12811317,41.30124061
45,9,South Carolina,Bamberg County,Bamberg County,14275,-81.05423377,33.214771
48,7,Texas,Aransas County,Aransas County,23792,-96.99143875,28.08472043
13,19,Georgia,Berrien County,Berrien County,19252,-83.229622,31.27605991
18,165,Indiana,Vermillion County,Vermillion County,15479,-87.46397354,39.85379749
26,143,Michigan,Roscommon County,Roscommon County,23884,-84.61159991,44.3356086
37,5,North Carolina,Alleghany County,Alleghany County,11161,-81.12785935,36.49127044
6,35,California,Lassen County,Lassen County,30802,-120.5943328,40.67359039
51,610,Virginia,Falls Church city,Falls Church city,14772,-77.17516384,38.88472671
12,81,Florida,Manatee County,Manatee County,394855,-82.35753965,27.47752253
39,119,Ohio,Muskingum County,Muskingum County,86183,-81.94438201,39.96542189
8,15,Colorado,Chaffee County,Chaffee County,20027,-106.1940667,38.74690309
8,25,Colorado,Crowley County,Crowley County,5858,-103.7848257,38.32666106
8,43,Colorado,Fremont County,Fremont County,48021,-105.4396571,38.47297247
28,109,Mississippi,Pearl River County,Pearl River County,55387,-89.58978297,30.76858047
28,111,Mississippi,Perry County,Perry County,11931,-88.99232828,31.17202427
31,41,Nebraska,Custer County,Custer County,10840,-99.72614379,41.39426404
12,13,Florida,Calhoun County,Calhoun County,14587,-85.19720725,30.40603421
21,117,Kentucky,Kenton County,Kenton County,166051,-84.53331685,38.93345286
19,37,Iowa,Chickasaw County,Chickasaw County,11964,-92.31766374,43.06004135
17,37,Illinois,DeKalb County,DeKalb County,104143,-88.77031483,41.89352862
19,81,Iowa,Hancock County,Hancock County,10712,-93.7342723,43.08188607
38,89,North Dakota,Stark County,Stark County,30997,-102.6551288,46.81068045
26,95,Michigan,Luce County,Luce County,6283,-85.56411891,46.71401657
40,19,Oklahoma,Carter County,Carter County,48177,-97.28578729,34.25086397
37,139,North Carolina,Pasquotank County,Pasquotank County,39639,-76.24924136,36.26501872
35,55,New Mexico,Taos County,Taos County,32835,-105.6310258,36.5781594
28,11,Mississippi,Bolivar County,Bolivar County,31333,-90.88040091,33.79553898
32,23,Nevada,Nye County,Nye County,45346,-116.4719313,38.0423816
47,73,Tennessee,Hawkins County,Hawkins County,56530,-82.94468762,36.44116349
38,11,North Dakota,Bowman County,Bowman County,3076,-103.5207134,46.11260896
42,57,Pennsylvania,Fulton County,Fulton County,14523,-78.11268366,39.92534363
22,55,Louisiana,Lafayette Parish,Lafayette Parish,242782,-92.06387983,30.20677163
48,237,Texas,Jack County,Jack County,8843,-98.172458,33.23346081
17,175,Illinois,Stark County,Stark County,5427,-89.79749409,41.09336442
40,55,Oklahoma,Greer County,Greer County,5821,-99.56080212,34.93570475
48,211,Texas,Hemphill County,Hemphill County,3825,-100.2704733,35.83756992
16,69,Idaho,Nez Perce County,Nez Perce County,40408,-116.7502769,46.32684924
46,129,South Dakota,Walworth County,Walworth County,5587,-100.0315561,45.42995011
6,55,California,Napa County,Napa County,139417,-122.3305332,38.50647366
40,33,Oklahoma,Cotton County,Cotton County,5776,-98.37223045,34.2902379
29,221,Missouri,Washington County,Washington County,24943,-90.8774245,37.96168391
36,11,New York,Cayuga County,Cayuga County,77145,-76.57435821,43.01032673
48,417,Texas,Shackelford County,Shackelford County,3253,-99.35406694,32.73597287
48,407,Texas,San Jacinto County,San Jacinto County,28719,-95.1669012,30.57953358
19,61,Iowa,Dubuque County,Dubuque County,96854,-90.88252187,42.46882243
51,75,Virginia,Goochland County,Goochland County,23244,-77.91585592,37.72165058
20,181,Kansas,Sherman County,Sherman County,5899,-101.7199807,39.35143369
39,139,Ohio,Richland County,Richland County,121099,-82.53648439,40.77468434
17,1,Illinois,Adams County,Adams County,65691,-91.18848886,39.98789405
39,21,Ohio,Champaign County,Champaign County,38754,-83.76949696,40.13767436
33,19,New Hampshire,Sullivan County,Sullivan County,43144,-72.22222936,43.3612747
17,75,Illinois,Iroquois County,Iroquois County,27604,-87.8243044,40.74722608
19,157,Iowa,Poweshiek County,Poweshiek County,18699,-92.5314684,41.68644219
39,169,Ohio,Wayne County,Wayne County,115967,-81.88803135,40.82886738
13,113,Georgia,Fayette County,Fayette County,113459,-84.49419113,33.41394304
13,141,Georgia,Hancock County,Hancock County,8348,-83.00068689,33.27042601
48,259,Texas,Kendall County,Kendall County,45641,-98.71155521,29.94468888
36,39,New York,Greene County,Greene County,47491,-74.1227065,42.27651977
51,137,Virginia,Orange County,Orange County,36644,-78.01366775,38.24621221
40,89,Oklahoma,McCurtain County,McCurtain County,32703,-94.77133233,34.11529469
13,277,Georgia,Tift County,Tift County,40571,-83.52659432,31.45743783
31,25,Nebraska,Cass County,Cass County,26159,-96.1408663,40.90972162
46,77,South Dakota,Kingsbury County,Kingsbury County,4919,-97.49147611,44.36958526
56,9,Wyoming,Converse County,Converse County,13640,-105.5070627,42.97233072
36,43,New York,Herkimer County,Herkimer County,61833,-74.96249798,43.41970212
38,47,North Dakota,Logan County,Logan County,1903,-99.47747592,46.45735552
26,53,Michigan,Gogebic County,Gogebic County,15096,-89.79547179,46.49548986
27,5,Minnesota,Becker County,Becker County,34371,-95.67392354,46.93464837
1,95,Alabama,Marshall County,Marshall County,96109,-86.30663697,34.3669621
47,173,Tennessee,Union County,Union County,19688,-83.83751391,36.28787388
54,57,West Virginia,Mineral County,Mineral County,26940,-78.94374626,39.4147219
55,3,Wisconsin,Ashland County,Ashland County,15600,-90.56450535,46.70071242
17,53,Illinois,Ford County,Ford County,13264,-88.22325865,40.59717696
38,29,North Dakota,Emmons County,Emmons County,3295,-100.2387806,46.28502423
6,89,California,Shasta County,Shasta County,180040,-122.0405215,40.7637666
22,113,Louisiana,Vermilion Parish,Vermilion Parish,59830,-92.30428295,29.80938932
5,121,Arkansas,Randolph County,Randolph County,17948,-91.02771653,36.34148331
55,85,Wisconsin,Oneida County,Oneida County,35470,-89.52181995,45.7055577
22,35,Louisiana,East Carroll Parish,East Carroll Parish,7037,-91.23506511,32.73255346
22,37,Louisiana,East Feliciana Parish,East Feliciana Parish,19305,-91.04553507,30.84507078
22,87,Louisiana,St. Bernard Parish,St. Bernard Parish,46721,-89.30412736,29.90472573
48,481,Texas,Wharton County,Wharton County,41619,-96.22210424,29.27786165
2,198,Alaska,Prince of Wales-Hyder Census Area,Prince of Wales-Hyder Census Area,6422,-133.1930274,55.72717097
2,195,Alaska,Petersburg Borough,Petersburg Borough,3221,-133.0024593,57.11401308
48,153,Texas,Floyd County,Floyd County,5837,-101.3032345,34.07242455
2,275,Alaska,Wrangell City and Borough,Wrangell City and Borough,2503,-132.1292251,56.29362718
21,151,Kentucky,Madison County,Madison County,92368,-84.27799733,37.7201841
47,9,Tennessee,Blount County,Blount County,131349,-83.92554816,35.68721675
30,31,Montana,Gallatin County,Gallatin County,111876,-111.1703689,45.5403895
45,31,South Carolina,Darlington County,Darlington County,66802,-79.95769405,34.33235227
1,53,Alabama,Escambia County,Escambia County,36748,-87.16161987,31.12612255
13,143,Georgia,Haralson County,Haralson County,29533,-85.21102635,33.79423342
20,1,Kansas,Allen County,Allen County,12444,-95.30138893,37.88573494
17,41,Illinois,Douglas County,Douglas County,19479,-88.21735503,39.76946388
51,79,Virginia,Greene County,Greene County,19779,-78.46686927,38.29762066
66,10,NA,NA,Guam,NA,144.7694517,13.44275955
55,137,Wisconsin,Waushara County,Waushara County,24263,-89.24287896,44.11312031
5,65,Arkansas,Izard County,Izard County,13593,-91.91341718,36.0948747
6,53,California,Monterey County,Monterey County,435594,-121.3089016,36.2397744
35,17,New Mexico,Grant County,Grant County,27346,-108.3824558,32.73900256
29,131,Missouri,Miller County,Miller County,25336,-92.42840777,38.2145295
37,193,North Carolina,Wilkes County,Wilkes County,68557,-81.16338566,36.20627576
2,110,Alaska,Juneau City and Borough,Juneau City and Borough,32113,-134.2119994,58.43450726
29,165,Missouri,Platte County,Platte County,102985,-94.77358945,39.38050346
29,21,Missouri,Buchanan County,Buchanan County,88571,-94.80615591,39.65985894
1,83,Alabama,Limestone County,Limestone County,96174,-86.98137477,34.81007832
18,65,Indiana,Henry County,Henry County,48271,-85.39643537,39.93103974
31,143,Nebraska,Polk County,Polk County,5278,-97.56842113,41.18689688
39,123,Ohio,Ottawa County,Ottawa County,40769,-83.01996925,41.59390013
27,107,Minnesota,Norman County,Norman County,6475,-96.45527776,47.3264762
19,165,Iowa,Shelby County,Shelby County,11578,-95.31021134,41.68509259
24,13,Maryland,Carroll County,Carroll County,168429,-77.02252272,39.56285416
19,11,Iowa,Benton County,Benton County,25642,-92.06569115,42.08018636
21,159,Kentucky,Martin County,Martin County,11323,-82.51329252,37.80157721
27,25,Minnesota,Chisago County,Chisago County,55922,-92.90834216,45.5024731
21,189,Kentucky,Owsley County,Owsley County,4472,-83.68311189,37.41920502
42,15,Pennsylvania,Bradford County,Bradford County,60833,-76.51545255,41.78866771
54,29,West Virginia,Hancock County,Hancock County,29094,-80.57389222,40.52185452
29,51,Missouri,Cole County,Cole County,76796,-92.28160018,38.50541413
26,21,Michigan,Berrien County,Berrien County,154141,-86.68542116,41.99577769
42,61,Pennsylvania,Huntingdon County,Huntingdon County,45168,-77.98120754,40.4169345
31,45,Nebraska,Dawes County,Dawes County,8716,-103.1354381,42.71972222
51,141,Virginia,Patrick County,Patrick County,17673,-80.28427462,36.67836381
26,119,Michigan,Montmorency County,Montmorency County,9265,-84.12720409,45.02754489
26,135,Michigan,Oscoda County,Oscoda County,8276,-84.12977142,44.68175818
35,7,New Mexico,Colfax County,Colfax County,12110,-104.6468425,36.60613674
17,163,Illinois,St. Clair County,St. Clair County,261059,-89.9284095,38.47030709
17,189,Illinois,Washington County,Washington County,13995,-89.41045383,38.35217487
42,9,Pennsylvania,Bedford County,Bedford County,48176,-78.49031712,40.00655527
5,127,Arkansas,Scott County,Scott County,10319,-94.06324913,34.86076302
20,99,Kansas,Labette County,Labette County,19964,-95.29757614,37.19132735
42,73,Pennsylvania,Lawrence County,Lawrence County,86184,-80.33419437,40.99126557
39,67,Ohio,Harrison County,Harrison County,15174,-81.09113541,40.29383876
37,3,North Carolina,Alexander County,Alexander County,37353,-81.17702685,35.92102631
34,9,New Jersey,Cape May County,Cape May County,92560,-74.84997701,39.08509811
33,5,New Hampshire,Cheshire County,Cheshire County,76493,-72.25117527,42.91933143
27,89,Minnesota,Marshall County,Marshall County,9390,-96.36847438,48.35812597
51,101,Virginia,King William County,King William County,16939,-77.08854379,37.70659572
8,55,Colorado,Huerfano County,Huerfano County,6889,-104.9605845,37.68467964
48,255,Texas,Karnes County,Karnes County,15650,-97.85940183,28.90573896
47,23,Tennessee,Chester County,Chester County,17276,-88.61346155,35.42175233
17,171,Illinois,Scott County,Scott County,4926,-90.47469583,39.64414201
49,27,Utah,Millard County,Millard County,13006,-113.1006989,39.07328719
49,29,Utah,Morgan County,Morgan County,12045,-111.5731504,41.08932043
48,257,Texas,Kaufman County,Kaufman County,128622,-96.28779232,32.59931455
4,11,Arizona,Greenlee County,Greenlee County,9483,-109.2402169,33.21548318
4,13,Arizona,Maricopa County,Maricopa County,4410824,-112.4912825,33.34882944
26,129,Michigan,Ogemaw County,Ogemaw County,20952,-84.12641366,44.33493926
47,87,Tennessee,Jackson County,Jackson County,11758,-85.67315079,36.35921152
17,159,Illinois,Richland County,Richland County,15763,-88.08510127,38.71236044
1,9,Alabama,Blount County,Blount County,57840,-86.56737096,33.98086739
30,51,Montana,Liberty County,Liberty County,2430,-111.0245801,48.56175465
48,131,Texas,Duval County,Duval County,11212,-98.50890599,27.68133301
29,173,Missouri,Ralls County,Ralls County,10212,-91.52202422,39.52767017
48,251,Texas,Johnson County,Johnson County,171361,-97.36632973,32.37901314
13,61,Georgia,Clay County,Clay County,2887,-84.98010291,31.62627552
41,23,Oregon,Grant County,Grant County,7176,-119.0073542,44.49150064
41,11,Oregon,Coos County,Coos County,64389,-124.0933188,43.18516207
48,159,Texas,Franklin County,Franklin County,10766,-95.2184194,33.17554868
36,113,New York,Warren County,Warren County,64265,-73.84600596,43.56097521
51,113,Virginia,Madison County,Madison County,13295,-78.27922447,38.41370416
40,5,Oklahoma,Atoka County,Atoka County,13838,-96.03782596,34.37371984
17,129,Illinois,Menard County,Menard County,12288,-89.80217024,40.02739689
13,15,Georgia,Bartow County,Bartow County,106408,-84.84050786,34.23786353
12,69,Florida,Lake County,Lake County,356495,-81.71130318,28.76146885
40,111,Oklahoma,Okmulgee County,Okmulgee County,38335,-95.96430817,35.64666488
38,83,North Dakota,Sheridan County,Sheridan County,1349,-100.3456591,47.57541231
18,49,Indiana,Fulton County,Fulton County,20092,-86.26358369,41.0469633
20,91,Kansas,Johnson County,Johnson County,597555,-94.82226104,38.88376851
24,9,Maryland,Calvert County,Calvert County,92003,-76.53056447,38.534712
55,129,Wisconsin,Washburn County,Washburn County,15878,-91.79123464,45.89917916
53,31,Washington,Jefferson County,Jefferson County,31729,-123.5764739,47.77643664
72,3,NA,NA,Aguada Municipio,NA,-67.18672882,18.376289
27,169,Minnesota,Winona County,Winona County,50825,-91.77912943,43.98684966
28,149,Mississippi,Warren County,Warren County,46176,-90.85201121,32.35722962
29,3,Missouri,Andrew County,Andrew County,17607,-94.80204594,39.98348787
29,139,Missouri,Montgomery County,Montgomery County,11534,-91.4702088,38.94149104
20,21,Kansas,Cherokee County,Cherokee County,20015,-94.84626898,37.16930606
37,83,North Carolina,Halifax County,Halifax County,50574,-77.65173298,36.25744855
35,43,New Mexico,Sandoval County,Sandoval County,145179,-106.8659509,35.68860455
21,51,Kentucky,Clay County,Clay County,20105,-83.7146627,37.15969757
42,35,Pennsylvania,Clinton County,Clinton County,38684,-77.63810583,41.23405437
41,43,Oregon,Linn County,Linn County,127335,-122.534995,44.48887877
55,65,Wisconsin,Lafayette County,Lafayette County,16665,-90.13172201,42.66049937
40,147,Oklahoma,Washington County,Washington County,51843,-95.90436999,36.71523632
54,77,West Virginia,Preston County,Preston County,33839,-79.66816199,39.46929687
69,100,NA,NA,Rota Municipality,NA,145.2151661,14.15154296
55,135,Wisconsin,Waupaca County,Waupaca County,51128,-88.96479281,44.47046117
48,137,Texas,Edwards County,Edwards County,1928,-100.3047417,29.98263295
41,37,Oregon,Lake County,Lake County,7879,-120.3873376,42.79346138
29,153,Missouri,Ozark County,Ozark County,9017,-92.44466357,36.64932189
48,473,Texas,Waller County,Waller County,53126,-95.98765334,30.01080512
1,99,Alabama,Monroe County,Monroe County,21067,-87.36543078,31.57083669
50,9,Vermont,Essex County,Essex County,6250,-71.73619376,44.72794034
51,111,Virginia,Lunenburg County,Lunenburg County,12086,-78.24056491,36.94620967
38,97,North Dakota,Traill County,Traill County,8037,-97.16158052,47.45418492
13,139,Georgia,Hall County,Hall County,202148,-83.81968095,34.31688919
13,283,Georgia,Treutlen County,Treutlen County,6809,-82.56728253,32.4038815
13,37,Georgia,Calhoun County,Calhoun County,6352,-84.62450769,31.52919727
55,125,Wisconsin,Vilas County,Vilas County,21938,-89.51484562,46.05289859
27,7,Minnesota,Beltrami County,Beltrami County,46847,-94.93765445,47.9737829
72,43,NA,NA,Coamo Municipio,NA,-66.36016992,18.09730467
72,55,NA,NA,Guánica Municipio,NA,-66.92193818,17.9463619
24,19,Maryland,Dorchester County,Dorchester County,31998,-76.08332531,38.42260804
42,37,Pennsylvania,Columbia County,Columbia County,65456,-76.40515008,41.04865346
39,23,Ohio,Clark County,Clark County,134585,-83.78389674,39.91677682
48,323,Texas,Maverick County,Maverick County,58485,-100.314514,28.74259011
4,19,Arizona,Pima County,Pima County,1039073,-111.7899302,32.09738665
35,6,New Mexico,Cibola County,Cibola County,26746,-107.9997243,34.91257799
34,5,New Jersey,Burlington County,Burlington County,445384,-74.66806775,39.87771719
50,21,Vermont,Rutland County,Rutland County,58672,-73.03660874,43.58009157
13,99,Georgia,Early County,Early County,10247,-84.90364342,31.32283271
25,7,Massachusetts,Dukes County,Dukes County,17352,-70.69877158,41.38877474
38,49,North Dakota,McHenry County,McHenry County,5816,-100.6362825,48.23458102
31,179,Nebraska,Wayne County,Wayne County,9403,-97.11926027,42.20928856
38,45,North Dakota,LaMoure County,LaMoure County,4062,-98.53545924,46.45691374
16,23,Idaho,Butte County,Butte County,2611,-113.172034,43.72293261
33,7,New Hampshire,Coos County,Coos County,31589,-71.30553265,44.68949564
38,43,North Dakota,Kidder County,Kidder County,2450,-99.78009152,46.98014341
48,273,Texas,Kleberg County,Kleberg County,31129,-97.66838777,27.42671082
18,127,Indiana,Porter County,Porter County,169594,-87.07331914,41.50883829
28,101,Mississippi,Newton County,Newton County,21443,-89.11880852,32.40023235
37,163,North Carolina,Sampson County,Sampson County,63626,-78.37139061,34.99153616
47,127,Tennessee,Moore County,Moore County,6411,-86.35877112,35.28461741
12,103,Florida,Pinellas County,Pinellas County,975280,-82.73955394,27.9026762
72,19,NA,NA,Barranquitas Municipio,NA,-66.30987257,18.20170623
17,65,Illinois,Hamilton County,Hamilton County,8163,-88.53910564,38.08157359
5,105,Arkansas,Perry County,Perry County,10352,-92.9314711,34.94737468
20,23,Kansas,Cheyenne County,Cheyenne County,2660,-101.7311042,39.78586934
8,29,Colorado,Delta County,Delta County,30953,-107.8628768,38.86137379
19,185,Iowa,Wayne County,Wayne County,6401,-93.32736387,40.73947019
48,165,Texas,Gaines County,Gaines County,20901,-102.6351741,32.7407277
1,93,Alabama,Marion County,Marion County,29763,-87.88713837,34.13654969
37,189,North Carolina,Watauga County,Watauga County,55945,-81.69642512,36.23110625
51,770,Virginia,Roanoke city,Roanoke city,99920,-79.95808115,37.27848684
48,317,Texas,Martin County,Martin County,5753,-101.9512168,32.30603013
48,37,Texas,Bowie County,Bowie County,94324,-94.42331814,33.44576463
49,57,Utah,Weber County,Weber County,256359,-111.9133839,41.26984303
29,127,Missouri,Marion County,Marion County,28592,-91.62234856,39.80596482
36,45,New York,Jefferson County,Jefferson County,111755,-76.05206866,43.9988617
19,97,Iowa,Jackson County,Jackson County,19432,-90.5742294,42.17174259
38,63,North Dakota,Nelson County,Nelson County,2869,-98.19203497,47.92169441
36,19,New York,Clinton County,Clinton County,80695,-73.67817375,44.74622635
8,45,Colorado,Garfield County,Garfield County,59770,-107.9039562,39.59930718
29,177,Missouri,Ray County,Ray County,22883,-93.98988353,39.35241406
39,73,Ohio,Hocking County,Hocking County,28385,-82.47925356,39.49702384
1,85,Alabama,Lowndes County,Lowndes County,9974,-86.6501077,32.15475001
13,43,Georgia,Candler County,Candler County,10836,-82.07367281,32.40344279
19,113,Iowa,Linn County,Linn County,225909,-91.59896461,42.07894782
6,105,California,Trinity County,Trinity County,12535,-123.1126277,40.65069356
13,215,Georgia,Muscogee County,Muscogee County,194160,-84.87704089,32.50996144
28,135,Mississippi,Tallahatchie County,Tallahatchie County,13987,-90.17326424,33.95047481
20,5,Kansas,Atchison County,Atchison County,16193,-95.31344465,39.53174
72,81,NA,NA,Lares Municipio,NA,-66.86677976,18.26867675
48,3,Texas,Andrews County,Andrews County,18128,-102.6378151,32.30503566
39,109,Ohio,Miami County,Miami County,106222,-84.2288512,40.05344538
48,375,Texas,Potter County,Potter County,119648,-101.8940035,35.4012728
40,133,Oklahoma,Seminole County,Seminole County,24578,-96.61551792,35.16748604
45,3,South Carolina,Aiken County,Aiken County,169401,-81.63474356,33.54436941
60,20,NA,NA,Manu'a District,NA,-169.5367349,-14.20843579
6,45,California,Mendocino County,Mendocino County,87606,-123.4315539,39.43362382
51,550,Virginia,Chesapeake city,Chesapeake city,242634,-76.30241829,36.6777445
69,120,NA,NA,Tinian Municipality,NA,145.6048455,14.94652943
72,153,NA,NA,Yauco Municipio,NA,-66.85828282,18.07956496
56,37,Wyoming,Sweetwater County,Sweetwater County,43051,-108.8794308,41.65949614
48,169,Texas,Garza County,Garza County,6578,-101.2984241,33.17987571
54,31,West Virginia,Hardy County,Hardy County,13775,-78.85792238,39.0075031
72,1,NA,NA,Adjuntas Municipio,NA,-66.75395662,18.17973266
55,89,Wisconsin,Ozaukee County,Ozaukee County,89147,-87.59446596,43.36564873
47,163,Tennessee,Sullivan County,Sullivan County,157668,-82.30414286,36.51291541
45,59,South Carolina,Laurens County,Laurens County,66994,-82.005934,34.48356766
56,11,Wyoming,Crook County,Crook County,7450,-104.5699294,44.58860362
55,117,Wisconsin,Sheboygan County,Sheboygan County,115456,-87.63477531,43.71970693
25,13,Massachusetts,Hampden County,Hampden County,470406,-72.63164871,42.13512072
48,55,Texas,Caldwell County,Caldwell County,43247,-97.61999926,29.83711543
20,29,Kansas,Cloud County,Cloud County,8729,-97.64928191,39.48029744
6,27,California,Inyo County,Inyo County,17987,-117.4107897,36.51112681
1,37,Alabama,Coosa County,Coosa County,10715,-86.24765926,32.93622683
19,59,Iowa,Dickinson County,Dickinson County,17153,-95.15083006,43.37798476
21,95,Kentucky,Harlan County,Harlan County,26409,-83.21795182,36.85697424
20,61,Kansas,Geary County,Geary County,32594,-96.75250216,39.00238546
42,11,Pennsylvania,Berks County,Berks County,420152,-75.9259989,40.41629566
47,19,Tennessee,Carter County,Carter County,56351,-82.12747918,36.29271989
27,83,Minnesota,Lyon County,Lyon County,25629,-95.8389749,44.41349159
51,37,Virginia,Charlotte County,Charlotte County,11938,-78.66164359,37.01162066
47,179,Tennessee,Washington County,Washington County,128607,-82.49742026,36.29329663
45,71,South Carolina,Newberry County,Newberry County,38520,-81.60011986,34.2898118
51,93,Virginia,Isle of Wight County,Isle of Wight County,36953,-76.70912648,36.90672914
41,69,Oregon,Wheeler County,Wheeler County,1366,-120.0275661,44.72611901
29,23,Missouri,Butler County,Butler County,42639,-90.40655638,36.71641708
22,47,Louisiana,Iberville Parish,Iberville Parish,32721,-91.34936319,30.25849887
28,125,Mississippi,Sharkey County,Sharkey County,4377,-90.81321492,32.87972307
51,61,Virginia,Fauquier County,Fauquier County,70675,-77.80923943,38.73864644
51,750,Virginia,Radford city,Radford city,18339,-80.55874905,37.12289116
32,5,Nevada,Douglas County,Douglas County,48467,-119.616372,38.9122414
12,37,Florida,Franklin County,Franklin County,11736,-84.80045659,29.81168359
18,55,Indiana,Greene County,Greene County,32006,-86.96204636,39.03632773
18,139,Indiana,Rush County,Rush County,16663,-85.46576118,39.61994844
55,131,Wisconsin,Washington County,Washington County,135693,-88.23076169,43.3684787
29,105,Missouri,Laclede County,Laclede County,35713,-92.59035226,37.65831727
42,85,Pennsylvania,Mercer County,Mercer County,110683,-80.25770247,41.30218089
5,31,Arkansas,Craighead County,Craighead County,108558,-90.63284126,35.8307887
29,195,Missouri,Saline County,Saline County,22895,-93.20185123,39.1368391
17,193,Illinois,White County,White County,13665,-88.17956689,38.08747817
17,39,Illinois,De Witt County,De Witt County,15769,-88.90409021,40.1746286
32,33,Nevada,White Pine County,White Pine County,9475,-114.9016845,39.44219519
27,49,Minnesota,Goodhue County,Goodhue County,46403,-92.72259068,44.40984644
37,173,North Carolina,Swain County,Swain County,14245,-83.49273937,35.48681505
12,101,Florida,Pasco County,Pasco County,539630,-82.4388684,28.30673969
12,119,Florida,Sumter County,Sumter County,128754,-82.08099538,28.70482252
36,59,New York,Nassau County,Nassau County,1358343,-73.58553674,40.73214208
38,91,North Dakota,Steele County,Steele County,1903,-97.72466836,47.45615399
18,163,Indiana,Vanderburgh County,Vanderburgh County,180974,-87.58578496,38.02495786
29,71,Missouri,Franklin County,Franklin County,103670,-91.07499388,38.41114436
37,11,North Carolina,Avery County,Avery County,17505,-81.92260141,36.07660501
54,107,West Virginia,Wood County,Wood County,84203,-81.51496532,39.21113174
55,7,Wisconsin,Bayfield County,Bayfield County,15042,-91.18068472,46.63543436
47,161,Tennessee,Stewart County,Stewart County,13561,-87.83845759,36.50110436
55,97,Wisconsin,Portage County,Portage County,70942,-89.50139728,44.47602597
45,63,South Carolina,Lexington County,Lexington County,295032,-81.2721944,33.90232816
24,3,Maryland,Anne Arundel County,Anne Arundel County,576031,-76.56759706,38.99415716
55,39,Wisconsin,Fond du Lac County,Fond du Lac County,103066,-88.48826311,43.75358946
54,101,West Virginia,Webster County,Webster County,8285,-80.42187307,38.49473731
55,61,Wisconsin,Kewaunee County,Kewaunee County,20383,-87.30725329,44.50599419
48,369,Texas,Parmer County,Parmer County,9864,-102.7845382,34.53011331
40,151,Oklahoma,Woods County,Woods County,8897,-98.86511866,36.76693687
21,63,Kentucky,Elliott County,Elliott County,7508,-83.09761634,38.11789168
25,3,Massachusetts,Berkshire County,Berkshire County,126348,-73.20641121,42.37067906
29,41,Missouri,Chariton County,Chariton County,7451,-92.96262369,39.51508138
8,103,Colorado,Rio Blanco County,Rio Blanco County,6336,-108.2172258,39.97983575
8,87,Colorado,Morgan County,Morgan County,28558,-103.8098222,40.26274438
41,45,Oregon,Malheur County,Malheur County,30725,-117.6230983,43.19347509
34,23,New Jersey,Middlesex County,Middlesex County,829685,-74.40883562,40.44008367
20,167,Kansas,Russell County,Russell County,6907,-98.76235102,38.91477884
17,155,Illinois,Putnam County,Putnam County,5740,-89.28583276,41.20446936
46,55,South Dakota,Haakon County,Haakon County,1918,-101.5399858,44.29442784
47,111,Tennessee,Macon County,Macon County,24265,-86.00727014,36.53203435
5,23,Arkansas,Cleburne County,Cleburne County,24965,-92.02673573,35.53810925
1,109,Alabama,Pike County,Pike County,33338,-85.94090815,31.80270849
16,3,Idaho,Adams County,Adams County,4250,-116.4538829,44.88958802
25,5,Massachusetts,Bristol County,Bristol County,564022,-71.08850085,41.75708824
42,107,Pennsylvania,Schuylkill County,Schuylkill County,142067,-76.21595486,40.70580057
38,103,North Dakota,Wells County,Wells County,3957,-99.66095258,47.58753129
37,45,North Carolina,Cleveland County,Cleveland County,97645,-81.55554158,35.33408924
5,59,Arkansas,Hot Spring County,Hot Spring County,33701,-92.94600573,34.3176343
24,21,Maryland,Frederick County,Frederick County,255648,-77.39798434,39.47221253
17,169,Illinois,Schuyler County,Schuyler County,6907,-90.61506652,40.15802765
6,51,California,Mono County,Mono County,14250,-118.8867093,37.93899034
6,109,California,Tuolumne County,Tuolumne County,54539,-119.9547536,38.0276014
35,13,New Mexico,Doa Ana County,Doña Ana County,217522,-106.8327212,32.35264791
13,81,Georgia,Crisp County,Crisp County,22601,-83.76810398,31.92293203
5,27,Arkansas,Columbia County,Columbia County,23537,-93.22730869,33.2142872
38,39,North Dakota,Griggs County,Griggs County,2232,-98.2370431,47.45728862
6,95,California,Solano County,Solano County,446610,-121.9400069,38.26691912
19,43,Iowa,Clayton County,Clayton County,17556,-91.34143277,42.84474931
48,449,Texas,Titus County,Titus County,33033,-94.96567223,33.21660304
54,27,West Virginia,Hampshire County,Hampshire County,23347,-78.61416844,39.31706531
37,125,North Carolina,Moore County,Moore County,98682,-79.48137443,35.31065385
20,9,Kansas,Barton County,Barton County,26111,-98.75646429,38.47896397
38,87,North Dakota,Slope County,Slope County,763,-103.4598905,46.44722237
22,83,Louisiana,Richland Parish,Richland Parish,20192,-91.7634869,32.41778981
31,71,Nebraska,Garfield County,Garfield County,1987,-98.99138528,41.91435707
22,99,Louisiana,St. Martin Parish,St. Martin Parish,53621,-91.60829574,30.12907211
1,119,Alabama,Sumter County,Sumter County,12691,-88.19878961,32.59101753
1,133,Alabama,Winston County,Winston County,23660,-87.37368337,34.14922508
12,117,Florida,Seminole County,Seminole County,467832,-81.23632791,28.71697528
28,35,Mississippi,Forrest County,Forrest County,75036,-89.25785979,31.1888694
26,65,Michigan,Ingham County,Ingham County,292735,-84.37353698,42.5970992
20,177,Kansas,Shawnee County,Shawnee County,177499,-95.75653335,39.04151444
46,61,South Dakota,Hanson County,Hanson County,3376,-97.78734268,43.67482231
27,61,Minnesota,Itasca County,Itasca County,45108,-93.63200661,47.50952555
8,73,Colorado,Lincoln County,Lincoln County,5610,-103.5139654,38.98806856
36,53,New York,Madison County,Madison County,70795,-75.66966589,42.9127746
36,115,New York,Washington County,Washington County,61197,-73.43075892,43.3137034
18,81,Indiana,Johnson County,Johnson County,156225,-86.10163686,39.48997076
48,445,Texas,Terry County,Terry County,12287,-102.3351966,33.17381266
35,21,New Mexico,Harding County,Harding County,655,-103.8200487,35.8579354
1,121,Alabama,Talladega County,Talladega County,79828,-86.16590694,33.38005741
55,67,Wisconsin,Langlade County,Langlade County,19268,-89.07190885,45.26234437
48,155,Texas,Foard County,Foard County,1200,-99.77798488,33.97461509
19,21,Iowa,Buena Vista County,Buena Vista County,19874,-95.15114897,42.73549364
19,129,Iowa,Mills County,Mills County,15063,-95.62132672,41.03345226
48,385,Texas,Real County,Real County,3478,-99.82216692,29.83174293
39,41,Ohio,Delaware County,Delaware County,204826,-83.00488534,40.27839363
37,67,North Carolina,Forsyth County,Forsyth County,379099,-80.25630002,36.13061955
32,510,Nevada,Carson City,Carson City,55414,-119.7474222,39.15114643
19,49,Iowa,Dallas County,Dallas County,90180,-94.03976193,41.68485821
48,65,Texas,Carson County,Carson County,6005,-101.354183,35.40350787
13,261,Georgia,Sumter County,Sumter County,29733,-84.1970414,32.03996923
29,223,Missouri,Wayne County,Wayne County,13122,-90.46142945,37.11263551
45,7,South Carolina,Anderson County,Anderson County,200482,-82.637885,34.51909131
56,7,Wyoming,Carbon County,Carbon County,14971,-106.9306102,41.69458927
30,93,Montana,Silver Bow County,Silver Bow County,34993,-112.6567135,45.90240445
17,177,Illinois,Stephenson County,Stephenson County,44753,-89.66235975,42.35174669
26,87,Michigan,Lapeer County,Lapeer County,88028,-83.22178372,43.09014743
22,27,Louisiana,Claiborne Parish,Claiborne Parish,15944,-92.99573324,32.82269344
28,161,Mississippi,Yalobusha County,Yalobusha County,12392,-89.70763184,34.02821156
72,93,NA,NA,Maricao Municipio,NA,-66.94228351,18.17209357
26,79,Michigan,Kalkaska County,Kalkaska County,17824,-85.0902501,44.68467641
72,5,NA,NA,Aguadilla Municipio,NA,-67.14471985,18.48029022
22,39,Louisiana,Evangeline Parish,Evangeline Parish,33443,-92.4059042,30.72893642
47,69,Tennessee,Hardeman County,Hardeman County,25220,-88.99308487,35.20686826
4,3,Arizona,Cochise County,Cochise County,126770,-109.7513001,31.87956126
35,23,New Mexico,Hidalgo County,Hidalgo County,4240,-108.7149795,31.91416794
38,23,North Dakota,Divide County,Divide County,2283,-103.4873444,48.81489064
6,71,California,San Bernardino County,San Bernardino County,2171603,-116.1784608,34.84143823
8,83,Colorado,Montezuma County,Montezuma County,26158,-108.5966698,37.33843397
28,23,Mississippi,Clarke County,Clarke County,15604,-88.68940444,32.04140167
19,125,Iowa,Marion County,Marion County,33407,-93.09943663,41.33445147
31,55,Nebraska,Douglas County,Douglas County,566880,-96.15447961,41.29535153
51,600,Virginia,Fairfax city,Fairfax city,24574,-77.29978807,38.85309836
40,57,Oklahoma,Harmon County,Harmon County,2664,-99.84627771,34.74411826
29,39,Missouri,Cedar County,Cedar County,14165,-93.8566135,37.72385153
13,59,Georgia,Clarke County,Clarke County,127330,-83.367332,33.95116831
16,85,Idaho,Valley County,Valley County,11041,-115.5662804,44.76663785
48,275,Texas,Knox County,Knox County,3653,-99.74142705,33.60612914
5,103,Arkansas,Ouachita County,Ouachita County,23606,-92.88193435,33.59335504
39,37,Ohio,Darke County,Darke County,51323,-84.61931914,40.13322396
40,71,Oklahoma,Kay County,Kay County,44161,-97.14392284,36.8180064
46,41,South Dakota,Dewey County,Dewey County,5904,-100.8718639,45.1566157
41,57,Oregon,Tillamook County,Tillamook County,26787,-123.7586647,45.4566725
13,77,Georgia,Coweta County,Coweta County,145864,-84.76336074,33.35346167
28,127,Mississippi,Simpson County,Simpson County,26758,-89.9194881,31.91317196
28,131,Mississippi,Stone County,Stone County,18717,-89.1177102,30.78995165
6,13,California,Contra Costa County,Contra Costa County,1150215,-121.9510732,37.92338055
47,17,Tennessee,Carroll County,Carroll County,28020,-88.45026075,35.97317842
51,87,Virginia,Henrico County,Henrico County,329261,-77.40584477,37.53800735
18,119,Indiana,Owen County,Owen County,20845,-86.83765435,39.31281005
36,119,New York,Westchester County,Westchester County,967612,-73.75339096,41.15148039
29,17,Missouri,Bollinger County,Bollinger County,12169,-90.02594721,37.32219073
54,47,West Virginia,McDowell County,McDowell County,18223,-81.65358379,37.37850132
54,33,West Virginia,Harrison County,Harrison County,67554,-80.37987499,39.28352969
37,77,North Carolina,Granville County,Granville County,60115,-78.65271953,36.30406976
9,9,Connecticut,New Haven County,New Haven County,857620,-72.89985997,41.34882294
31,139,Nebraska,Pierce County,Pierce County,7142,-97.60129052,42.26437462
13,23,Georgia,Bleckley County,Bleckley County,12838,-83.32783883,32.43444145
13,33,Georgia,Burke County,Burke County,22423,-82.00078115,33.0611535
17,181,Illinois,Union County,Union County,16841,-89.25508784,37.47122821
17,91,Illinois,Kankakee County,Kankakee County,110024,-87.86180453,41.13770561
38,51,North Dakota,McIntosh County,McIntosh County,2585,-99.44120433,46.11179369
31,141,Nebraska,Platte County,Platte County,33363,-97.521157,41.57128677
37,185,North Carolina,Warren County,Warren County,19807,-78.10671713,36.39651028
72,9,NA,NA,Aibonito Municipio,NA,-66.26438045,18.13113227
13,197,Georgia,Marion County,Marion County,8351,-84.52463789,32.35337818
46,27,South Dakota,Clay County,Clay County,14041,-96.97563762,42.9145713
10,5,Delaware,Sussex County,Sussex County,229286,-75.33954165,38.68329718
13,159,Georgia,Jasper County,Jasper County,14040,-83.68808959,33.31643358
29,175,Missouri,Randolph County,Randolph County,24763,-92.49707798,39.44016798
20,15,Kansas,Butler County,Butler County,66765,-96.83906546,37.78127075
48,209,Texas,Hays County,Hays County,222631,-98.03106327,30.05815058
48,325,Texas,Medina County,Medina County,50921,-99.11013102,29.35569605
26,105,Michigan,Mason County,Mason County,29100,-86.54509227,43.99606769
45,13,South Carolina,Beaufort County,Beaufort County,188715,-80.69221002,32.35704615
46,135,South Dakota,Yankton County,Yankton County,22869,-97.39476512,43.00896575
55,105,Wisconsin,Rock County,Rock County,163129,-89.07156641,42.67122437
45,77,South Carolina,Pickens County,Pickens County,124937,-82.72531646,34.88751606
53,13,Washington,Columbia County,Columbia County,4059,-117.9078422,46.29749828
18,23,Indiana,Clinton County,Clinton County,32250,-86.47515954,40.3016906
17,27,Illinois,Clinton County,Clinton County,37639,-89.42248489,38.60645188
16,67,Idaho,Minidoka County,Minidoka County,20825,-113.6374638,42.85425995
42,113,Pennsylvania,Sullivan County,Sullivan County,6071,-76.51214129,41.44615912
28,121,Mississippi,Rankin County,Rankin County,153902,-89.94579807,32.26412436
48,345,Texas,Motley County,Motley County,1234,-100.779829,34.07409478
41,39,Oregon,Lane County,Lane County,379611,-122.8762151,43.94169255
48,485,Texas,Wichita County,Wichita County,132064,-98.70361471,33.98798
26,155,Michigan,Shiawassee County,Shiawassee County,68192,-84.1467311,42.95373387
20,89,Kansas,Jewell County,Jewell County,2841,-98.21834087,39.78473208
20,123,Kansas,Mitchell County,Mitchell County,6150,-98.20936482,39.39326593
12,7,Florida,Bradford County,Bradford County,27732,-82.16877777,29.94995957
28,91,Mississippi,Marion County,Marion County,24715,-89.82244299,31.23081713
28,39,Mississippi,George County,George County,24250,-88.64403459,30.86260679
17,85,Illinois,Jo Daviess County,Jo Daviess County,21366,-90.21258644,42.36581608
18,59,Indiana,Hancock County,Hancock County,76351,-85.77323764,39.82354999
51,620,Virginia,Franklin city,Franklin city,8013,-76.93858455,36.68309149
48,329,Texas,Midland County,Midland County,172578,-102.0316093,31.86915995
20,171,Kansas,Scott County,Scott County,4897,-100.906859,38.48216936
30,13,Montana,Cascade County,Cascade County,81643,-111.3470459,47.30795445
51,660,Virginia,Harrisonburg city,Harrisonburg city,54033,-78.87347925,38.43618806
17,199,Illinois,Williamson County,Williamson County,67056,-88.92993704,37.73024714
30,29,Montana,Flathead County,Flathead County,102106,-114.0496737,48.29512655
72,111,NA,NA,Peñuelas Municipio,NA,-66.72794638,18.02444444
20,189,Kansas,Stevens County,Stevens County,5559,-101.3120454,37.19231912
21,67,Kentucky,Fayette County,Fayette County,323780,-84.45872219,38.04233026
21,91,Kentucky,Hancock County,Hancock County,8758,-86.77792521,37.84150873
46,13,South Dakota,Brown County,Brown County,39316,-98.3516118,45.58972298
54,1,West Virginia,Barbour County,Barbour County,16535,-80.00302888,39.13293387
47,181,Tennessee,Wayne County,Wayne County,16558,-87.78801397,35.23991712
31,13,Nebraska,Box Butte County,Box Butte County,10772,-103.0856819,42.21976726
42,97,Pennsylvania,Northumberland County,Northumberland County,91083,-76.70932162,40.85199078
48,469,Texas,Victoria County,Victoria County,92035,-96.97152528,28.79635149
51,530,Virginia,Buena Vista city,Buena Vista city,6237,-79.35682866,37.73192777
26,147,Michigan,St. Clair County,St. Clair County,159337,-82.66436772,42.93112197
31,173,Nebraska,Thurston County,Thurston County,7303,-96.54409721,42.15818606
50,15,Vermont,Lamoille County,Lamoille County,25300,-72.64142911,44.60573056
51,67,Virginia,Franklin County,Franklin County,56195,-79.88106542,36.99195512
40,11,Oklahoma,Blaine County,Blaine County,9485,-98.43345732,35.87525139
53,37,Washington,Kittitas County,Kittitas County,47364,-120.6796832,47.12426615
18,135,Indiana,Randolph County,Randolph County,24851,-85.01131041,40.15763955
49,25,Utah,Kane County,Kane County,7709,-111.8877663,37.28509939
54,93,West Virginia,Tucker County,Tucker County,6955,-79.56497417,39.11359529
72,113,NA,NA,Ponce Municipio,NA,-66.60725882,18.00272664
55,23,Wisconsin,Crawford County,Crawford County,16291,-90.9310479,43.2394623
1,71,Alabama,Jackson County,Jackson County,51736,-85.99930054,34.779416
19,123,Iowa,Mahaska County,Mahaska County,22000,-92.64090936,41.33520346
20,45,Kansas,Douglas County,Douglas County,121436,-95.29260631,38.88465945
21,59,Kentucky,Daviess County,Daviess County,101104,-87.08722663,37.73177161
21,197,Kentucky,Powell County,Powell County,12442,-83.82377476,37.83114552
29,97,Missouri,Jasper County,Jasper County,120636,-94.34060531,37.20354731
41,61,Oregon,Union County,Union County,26461,-118.0087777,45.31022514
13,151,Georgia,Henry County,Henry County,230220,-84.15418401,33.45298562
38,1,North Dakota,Adams County,Adams County,2294,-102.5285304,46.0968419
37,137,North Carolina,Pamlico County,Pamlico County,12670,-76.66945984,35.15102123
21,83,Kentucky,Graves County,Graves County,37317,-88.65120577,36.7231382
42,21,Pennsylvania,Cambria County,Cambria County,131730,-78.71370329,40.49529401
47,107,Tennessee,McMinn County,McMinn County,53285,-84.61747389,35.42474638
26,93,Michigan,Livingston County,Livingston County,191224,-83.91152775,42.60291744
8,1,Colorado,Adams County,Adams County,511868,-104.3378006,39.87364021
42,69,Pennsylvania,Lackawanna County,Lackawanna County,210793,-75.60919565,41.43678632
40,123,Oklahoma,Pontotoc County,Pontotoc County,38247,-96.68443856,34.72800016
40,37,Oklahoma,Creek County,Creek County,71604,-96.37094151,35.90267832
48,457,Texas,Tyler County,Tyler County,21696,-94.37659393,30.77123215
47,175,Tennessee,Van Buren County,Van Buren County,5765,-85.4526142,35.69598146
40,125,Oklahoma,Pottawatomie County,Pottawatomie County,72679,-96.94830096,35.20672132
9,13,Connecticut,Tolland County,Tolland County,150921,-72.33650168,41.85506598
35,53,New Mexico,Socorro County,Socorro County,16735,-106.9303992,34.00718796
13,3,Georgia,Atkinson County,Atkinson County,8297,-82.8799929,31.29710834
12,31,Florida,Duval County,Duval County,950181,-81.64800883,30.33544086
48,145,Texas,Falls County,Falls County,17335,-96.93584709,31.25327166
5,149,Arkansas,Yell County,Yell County,21535,-93.4112494,35.00259719
20,33,Kansas,Comanche County,Comanche County,1748,-99.27187147,37.1912804
21,113,Kentucky,Jessamine County,Jessamine County,53920,-84.58093725,37.87205132
21,171,Kentucky,Monroe County,Monroe County,10718,-85.7165196,36.71218028
40,75,Oklahoma,Kiowa County,Kiowa County,8729,-98.98087029,34.91636755
46,79,South Dakota,Lake County,Lake County,13057,-97.12937637,44.02204427
37,33,North Carolina,Caswell County,Caswell County,22698,-79.33352348,36.39327422
48,377,Texas,Presidio County,Presidio County,6948,-104.2405217,29.99980267
39,57,Ohio,Greene County,Greene County,167995,-83.88988556,39.69147942
48,489,Texas,Willacy County,Willacy County,21515,-97.59182561,26.47700594
72,21,NA,NA,Bayamón Municipio,NA,-66.16833657,18.34963688
35,28,New Mexico,Los Alamos County,Los Alamos County,19101,-106.3073851,35.86938138
2,122,Alaska,Kenai Peninsula Borough,Kenai Peninsula Borough,58533,-151.6980581,60.11940764
1,3,Alabama,Baldwin County,Baldwin County,218022,-87.74984468,30.66097399
19,7,Iowa,Appanoose County,Appanoose County,12437,-92.86861042,40.74316347
78,10,NA,NA,St. Croix Island,NA,-64.74793574,17.73561337
51,127,Virginia,New Kent County,New Kent County,22391,-76.99734005,37.50521123
13,263,Georgia,Talbot County,Talbot County,6272,-84.53301018,32.6994863
36,49,New York,Lewis County,Lewis County,26447,-75.4487945,43.78469143
54,15,West Virginia,Clay County,Clay County,8632,-81.07508747,38.462532
18,77,Indiana,Jefferson County,Jefferson County,32208,-85.43857288,38.78582266
51,19,Virginia,Bedford County,Bedford County,78747,-79.52417243,37.31515238
35,33,New Mexico,Mora County,Mora County,4506,-104.945551,36.01052565
31,11,Nebraska,Boone County,Boone County,5239,-98.06725553,41.70678472
29,149,Missouri,Oregon County,Oregon County,10541,-91.40329496,36.68671588
47,83,Tennessee,Houston County,Houston County,8263,-87.71703563,36.28597166
42,131,Pennsylvania,Wyoming County,Wyoming County,27046,-76.01655144,41.51832948
37,107,North Carolina,Lenoir County,Lenoir County,55976,-77.64124863,35.23877316
18,167,Indiana,Vigo County,Vigo County,107386,-87.38996445,39.4306386
18,39,Indiana,Elkhart County,Elkhart County,205560,-85.85875528,41.59738449
51,77,Virginia,Grayson County,Grayson County,15631,-81.22489107,36.65651744
48,303,Texas,Lubbock County,Lubbock County,307412,-101.8205458,33.61020612
27,93,Minnesota,Meeker County,Meeker County,23141,-94.52730947,45.12311524
39,5,Ohio,Ashland County,Ashland County,53745,-82.2706917,40.84601938
31,119,Nebraska,Madison County,Madison County,35392,-97.6007791,41.9166981
12,85,Florida,Martin County,Martin County,160912,-80.39847042,27.08162109
8,79,Colorado,Mineral County,Mineral County,776,-106.9240946,37.66899568
13,85,Georgia,Dawson County,Dawson County,25083,-84.17063568,34.44429808
13,167,Georgia,Johnson County,Johnson County,9708,-82.6600811,32.70146505
5,95,Arkansas,Monroe County,Monroe County,6900,-91.20389154,34.67783837
29,59,Missouri,Dallas County,Dallas County,16762,-93.02365539,37.6804065
51,143,Virginia,Pittsylvania County,Pittsylvania County,60949,-79.39711939,36.82129773
2,68,Alaska,Denali Borough,Denali Borough,2059,-150.0117147,63.67164195
20,145,Kansas,Pawnee County,Pawnee County,6562,-99.23672935,38.18133078
20,209,Kansas,Wyandotte County,Wyandotte County,165324,-94.76447844,39.11464534
12,29,Florida,Dixie County,Dixie County,16700,-83.18703245,29.58124153
26,157,Michigan,Tuscola County,Tuscola County,52516,-83.43986858,43.49134253
2,240,Alaska,Southeast Fairbanks Census Area,Southeast Fairbanks Census Area,6918,-143.2119923,63.87629598
20,65,Kansas,Graham County,Graham County,2492,-99.88325263,39.34971604
22,97,Louisiana,St. Landry Parish,St. Landry Parish,82764,-92.00585686,30.5988511
47,55,Tennessee,Giles County,Giles County,29503,-87.03477737,35.2021509
39,95,Ohio,Lucas County,Lucas County,429899,-83.46826702,41.68418653
5,93,Arkansas,Mississippi County,Mississippi County,41239,-90.05416597,35.7639015
72,117,NA,NA,Rincón Municipio,NA,-67.26468432,18.33927105
18,43,Indiana,Floyd County,Floyd County,77781,-85.90683072,38.31892863
20,129,Kansas,Morton County,Morton County,2667,-101.7992521,37.19139581
21,81,Kentucky,Grant County,Grant County,25121,-84.62461391,38.64881622
21,217,Kentucky,Taylor County,Taylor County,25549,-85.32783857,37.36645646
37,75,North Carolina,Graham County,Graham County,8484,-83.8335818,35.35017195
54,45,West Virginia,Logan County,Logan County,32607,-81.93534048,37.83153388
54,73,West Virginia,Pleasants County,Pleasants County,7507,-81.16062967,39.3709376
51,71,Virginia,Giles County,Giles County,16844,-80.70293686,37.31425659
54,19,West Virginia,Fayette County,Fayette County,43018,-81.08119208,38.02877756
53,61,Washington,Snohomish County,Snohomish County,814901,-121.7223467,48.04609535
35,15,New Mexico,Eddy County,Eddy County,57900,-104.3044658,32.47146286
31,117,Nebraska,McPherson County,McPherson County,492,-101.0605304,41.56808446
31,145,Nebraska,Red Willow County,Red Willow County,10726,-100.4768648,40.17583052
31,149,Nebraska,Rock County,Rock County,1360,-99.44992974,42.42128813
47,85,Tennessee,Humphreys County,Humphreys County,18486,-87.77563336,36.04081888
17,125,Illinois,Mason County,Mason County,13565,-89.9167838,40.23964842
51,197,Virginia,Wythe County,Wythe County,28754,-81.07866813,36.91711222
13,303,Georgia,Washington County,Washington County,20386,-82.79589917,32.96953574
53,77,Washington,Yakima County,Yakima County,251446,-120.7384906,46.45702651
5,143,Arkansas,Washington County,Washington County,236961,-94.21557902,35.97906747
48,213,Texas,Henderson County,Henderson County,82299,-95.85357792,32.21190009
55,35,Wisconsin,Eau Claire County,Eau Claire County,104534,-91.28598159,44.72677465
47,153,Tennessee,Sequatchie County,Sequatchie County,14876,-85.41058691,35.37114775
48,471,Texas,Walker County,Walker County,72480,-95.57228393,30.73904486
4,5,Arizona,Coconino County,Coconino County,142854,-111.7705132,35.83873094
20,191,Kansas,Sumner County,Sumner County,22996,-97.47655021,37.23727534
26,127,Michigan,Oceana County,Oceana County,26625,-86.581772,43.64461713
27,65,Minnesota,Kanabec County,Kanabec County,16207,-93.29342506,45.94521679
39,7,Ohio,Ashtabula County,Ashtabula County,97493,-80.75901079,41.89638114
6,3,California,Alpine County,Alpine County,1101,-119.820653,38.59725063
48,167,Texas,Galveston County,Galveston County,337890,-94.86267178,29.37996694
1,11,Alabama,Bullock County,Bullock County,10138,-85.71569723,32.10055422
17,105,Illinois,Livingston County,Livingston County,35761,-88.55771731,40.89155713
39,135,Ohio,Preble County,Preble County,40997,-84.64801467,39.74152706
